상가업소번호,상호명,지점명,상권업종대분류코드,상권업종대분류명,상권업종중분류코드,상권업종중분류명,상권업종소분류코드,상권업종소분류명,표준산업분류코드,표준산업분류명,시도코드,시도명,시군구코드,시군구명,행정동코드,행정동명,법정동코드,법정동명,지번코드,대지구분코드,대지구분명,지번본번지,지번부번지,지번주소,도로명코드,도로명,건물본번지,건물부번지,건물관리번호,건물명,도로명주소,구우편번호,신우편번호,동정보,층정보,호정보,경도,위도
21706657,동경부동산,,L,부동산,L01,부동산중개,L01A01,부동산중개,L68221,부동산 자문 및 중개업,50,제주특별자치도,50130,서귀포시,5013053000,중앙동,5013010100,서귀동,5.01E+18,1,대지,290,5,제주특별자치도 서귀포시 서귀동 290-5,5.01E+11,제주특별자치도 서귀포시 중앙로,70,1,5.01E+24,동문레코드,제주특별자치도 서귀포시 중앙로 70-1,697843,63591,,,,126.5615565,33.2508772
17174231,에프케이알레그리아호텔제주,,O,숙박,O01,호텔/콘도,O01A01,호텔/콘도,,,50,제주특별자치도,50130,서귀포시,5013054000,천지동,5013010100,서귀동,5.01E+18,1,대지,319,2,제주특별자치도 서귀포시 서귀동 319-2,5.01E+11,제주특별자치도 서귀포시 중앙로47번길,25,,5.01E+24,비스타케이호텔(천지연),제주특별자치도 서귀포시 중앙로47번길 25,697844,63592,,,,126.5590147,33.24817899
17173846,아빠가닭튀기는집,,Q,음식,Q09,유흥주점,Q09A01,호프/맥주,I56219,기타 주점업,50,제주특별자치도,50110,제주시,5011025000,한림읍,5011025024,한림읍,5.01E+18,1,대지,1199,3,제주특별자치도 제주시 한림읍 한림리 1199-3,5.01E+11,제주특별자치도 제주시 한림읍 한림중앙로,26,,5.01E+24,,제주특별자치도 제주시 한림읍 한림중앙로 26,695932,63032,,,,126.26486,33.41236333
20823993,현임옥헤어샵,,F,생활서비스,F01,이/미용/건강,F01A01,여성미용실,S96112,두발미용업,50,제주특별자치도,50110,제주시,5011066000,노형동,5011012200,노형동,5.01E+18,1,대지,2613,7,제주특별자치도 제주시 노형동 2613-7,5.01E+11,제주특별자치도 제주시 정존11길,29,,5.01E+24,,제주특별자치도 제주시 정존11길 29,690805,63102,,,,126.4748872,33.48597795
15517264,금실홈패션,,D,소매,D07,가정/주방/인테리어,D07A09,홈패션,G47411,가정용 직물제품 소매업,50,제주특별자치도,50110,제주시,5011057000,용담1동,5011010800,용담일동,5.01E+18,1,대지,135,9,제주특별자치도 제주시 용담일동 135-9,5.01E+11,제주특별자치도 제주시 서문로4길,13,2,5.01E+24,서문공설시장,제주특별자치도 제주시 서문로4길 13-2,690819,63154,,,,126.5179557,33.51133884
17175305,숙성1퍼센트,,Q,음식,Q01,한식,Q01A01,한식/백반/한정식,I56111,한식 음식점업,50,제주특별자치도,50110,제주시,5011066000,노형동,5011012200,노형동,5.01E+18,1,대지,3785,3,제주특별자치도 제주시 노형동 3785-3,5.01E+11,제주특별자치도 제주시 노형10길,25,,5.01E+24,,제주특별자치도 제주시 노형10길 25,690805,63083,,,,126.4798935,33.48333476
21633032,정아기획인쇄사,,F,생활서비스,F12,광고/인쇄,F12A01,인쇄종합,C18119,기타 인쇄업,50,제주특별자치도,50130,서귀포시,5013054000,천지동,5013010100,서귀동,5.01E+18,1,대지,308,21,제주특별자치도 서귀포시 서귀동 308-21,5.01E+11,제주특별자치도 서귀포시 서문로29번길,3,,5.01E+24,명품치킨,제주특별자치도 서귀포시 서문로29번길 3,697844,63592,,1,,126.5590471,33.25012685
28510791,해녀촌식당,,Q,음식,Q01,한식,Q01A01,한식/백반/한정식,I56111,한식 음식점업,50,제주특별자치도,50130,서귀포시,5013025000,대정읍,5013025026,대정읍,5.01E+18,1,대지,70,13,제주특별자치도 서귀포시 대정읍 가파리 70-13,5.01E+11,제주특별자치도 서귀포시 대정읍 가파로,76,,5.01E+24,케이마트가파점,제주특별자치도 서귀포시 대정읍 가파로 76,699936,63514,,,,126.2741257,33.16652069
23325473,죠스떡볶이,탑동점,Q,음식,Q04,분식,Q04A03,떡볶이전문,I56194,분식 및 김밥 전문점,50,제주특별자치도,50110,제주시,5011059000,건입동,5011010700,건입동,5.01E+18,1,대지,1442,,제주특별자치도 제주시 건입동 1442,5.01E+11,제주특별자치도 제주시 임항로,17,,5.01E+24,,제주특별자치도 제주시 임항로 17,690801,63276,,,,126.5267972,33.51673654
24046270,초롱꽃집,,D,소매,D02,선물/팬시/기념품,D02A02,꽃집/꽃배달,G47851,화초 및 산식물 소매업,50,제주특별자치도,50110,제주시,5011060000,화북동,5011011100,화북일동,5.01E+18,1,대지,4635,1,제주특별자치도 제주시 화북일동 4635-1,5.01E+11,제주특별자치도 제주시 일주동로,123,,5.01E+24,,제주특별자치도 제주시 일주동로 123,690061,63293,,,,126.5592654,33.51638818
21652589,퓨리나사료,,D,소매,D25,기타판매업,D25A25,사료소매,G47211,곡물 소매업,50,제주특별자치도,50110,제주시,5011025300,애월읍,5011025342,애월읍,5.01E+18,1,대지,1386,,제주특별자치도 제주시 애월읍 유수암리 1386,5.01E+11,제주특별자치도 제주시 애월읍 유수암로,213,,5.01E+24,,제주특별자치도 제주시 애월읍 유수암로 213,695916,63067,,1,,126.4033055,33.42611432
15498703,가르텐비어,제주노형점,Q,음식,Q09,유흥주점,Q09A01,호프/맥주,I56219,기타 주점업,50,제주특별자치도,50110,제주시,5011066000,노형동,5011012200,노형동,5.01E+18,1,대지,1054,3,제주특별자치도 제주시 노형동 1054-3,5.01E+11,제주특별자치도 제주시 월랑로10길,2,,5.01E+24,,제주특별자치도 제주시 월랑로10길 2,690803,63097,,,,126.4766308,33.48901964
23922903,마이티스쿨보습학원,,R,학문/교육,R01,학원-보습교습입시,R01A01,학원-입시,P85501,일반 교과 학원,50,제주특별자치도,50110,제주시,5011060000,화북동,5011011100,화북일동,5.01E+18,1,대지,1989,19,제주특별자치도 제주시 화북일동 1989-19,5.01E+11,제주특별자치도 제주시 진남로8길,3,,5.01E+24,정민빌라,제주특별자치도 제주시 진남로8길 3,690839,63289,A,,,126.5673215,33.51933963
20255394,어머니몸국,,Q,음식,Q01,한식,Q01A01,한식/백반/한정식,I56111,한식 음식점업,50,제주특별자치도,50110,제주시,5011025900,조천읍,5011025923,조천읍,5.01E+18,1,대지,2360,2,제주특별자치도 제주시 조천읍 조천리 2360-2,5.01E+11,제주특별자치도 제주시 조천읍 신북로,245,,5.01E+24,,제주특별자치도 제주시 조천읍 신북로 245,695964,63331,,,,126.638489,33.53738072
24421467,우석스포츠,,D,소매,D14,운동/경기용품소매,D14A01,운동/경기용품,G47631,운동 및 경기용품 소매업,50,제주특별자치도,50110,제주시,5011054000,이도2동,5011010400,이도이동,5.01E+18,1,대지,1986,4,제주특별자치도 제주시 이도이동 1986-4,5.01E+11,제주특별자치도 제주시 중앙로,377,,5.01E+24,,제주특별자치도 제주시 중앙로 377,690851,63230,,,,126.5398173,33.48875257
21635702,탑입시학원,,R,학문/교육,R01,학원-보습교습입시,R01A01,학원-입시,P85501,일반 교과 학원,50,제주특별자치도,50110,제주시,5011060000,화북동,5011011100,화북일동,5.01E+18,1,대지,1239,6,제주특별자치도 제주시 화북일동 1239-6,5.01E+11,제주특별자치도 제주시 일주동로,241,,5.01E+24,,제주특별자치도 제주시 일주동로 241,690838,63288,,3,,126.5710163,33.51982409
21669262,참사랑피아노,,R,학문/교육,R05,학원-음악미술무용,R05A02,피아노/바이올린/기타,P85620,예술 학원,50,제주특별자치도,50110,제주시,5011055000,삼도1동,5011010500,삼도일동,5.01E+18,1,대지,509,9,제주특별자치도 제주시 삼도일동 509-9,5.01E+11,제주특별자치도 제주시 서사로14길,32,,5.01E+24,,제주특별자치도 제주시 서사로14길 32,690812,63176,,1,,126.5167407,33.50369702
21655424,우리산업,,D,소매,D01,음/식료품소매,D01A02,김치판매,G47219,기타 식료품 소매업,50,제주특별자치도,50130,서귀포시,5013025000,대정읍,5013025025,대정읍,5.01E+18,1,대지,551,11,제주특별자치도 서귀포시 대정읍 일과리 551-11,5.01E+11,제주특별자치도 서귀포시 대정읍 일주서로3000번길,155,13,5.01E+24,,제주특별자치도 서귀포시 대정읍 일주서로3000번길 155-13,699932,63504,,1,,126.2291633,33.25829006
28520831,제주바다목적체험관,,F,생활서비스,F07,물품기기대여,F07A02,오락/스포츠용품대여,L69210,스포츠 및 레크레이션 용품 임대업,50,제주특별자치도,50110,제주시,5011031000,한경면,5011031028,한경면,5.01E+18,1,대지,542,9,제주특별자치도 제주시 한경면 신창리 542-9,5.01E+11,제주특별자치도 제주시 한경면 한경해안로,563,2,5.01E+24,,제주특별자치도 제주시 한경면 한경해안로 563-2,695944,63002,,,,126.1793947,33.34606611
25193949,궁,,D,소매,D16,화장품소매,D16A01,화장품판매점,G47813,화장품 및 방향제 소매업,50,제주특별자치도,50110,제주시,5011066000,노형동,5011012200,노형동,5.01E+18,1,대지,920,5,제주특별자치도 제주시 노형동 920-5,5.01E+11,제주특별자치도 제주시 1100로,3330,,5.01E+24,,제주특별자치도 제주시 1100로 3330,690802,63084,,,,126.4809809,33.483294
21650706,우주헬스타운,,P,스포츠,P02,실내운동시설,P02A13,헬스클럽,R91132,체력단련시설 운영업,50,제주특별자치도,50130,서귀포시,5013058000,서홍동,5013010600,서홍동,5.01E+18,1,대지,311,3,제주특별자치도 서귀포시 서홍동 311-3,5.01E+11,제주특별자치도 서귀포시 중앙로,163,,5.01E+24,한라프라자,제주특별자치도 서귀포시 중앙로 163,697850,63584,,,,126.559035,33.25935922
28508430,현의산책,,O,숙박,O03,캠프/별장/펜션,O03A01,캠프/별장/펜션,I55119,기타 관광숙박시설 운영업,50,제주특별자치도,50130,서귀포시,5013025900,성산읍,5013025926,성산읍,5.01E+18,1,대지,128,1,제주특별자치도 서귀포시 성산읍 온평리 128-1,5.01E+11,제주특별자치도 서귀포시 성산읍 온평관전로59번길,49,,5.01E+24,,제주특별자치도 서귀포시 성산읍 온평관전로59번길 49,699905,63633,,,,126.9060689,33.41461712
24691834,119타이어,서귀포점,D,소매,D23,자동차/자동차용품,D23A04,타이어판매,G45211,자동차 타이어 및 튜브 판매업,50,제주특별자치도,50130,서귀포시,5013057000,동홍동,5013010500,동홍동,5.01E+18,1,대지,68,7,제주특별자치도 서귀포시 동홍동 68-7,5.01E+11,제주특별자치도 서귀포시 일주동로,8533,,5.01E+24,,제주특별자치도 서귀포시 일주동로 8533,697834,63589,,,,126.5766496,33.25449504
24560995,월드렌트카,,F,생활서비스,F07,물품기기대여,F07A11,렌트카,L69110,자동차 임대업,50,제주특별자치도,50110,제주시,5011069000,도두동,5011012700,도두일동,5.01E+18,1,대지,2248,1,제주특별자치도 제주시 도두일동 2248-1,5.01E+11,제주특별자치도 제주시 오일장중길,39,,5.01E+24,,제주특별자치도 제주시 오일장중길 39,690241,63116,,,,126.4721977,33.49637593
21672249,제주감협,,D,소매,D03,종합소매점,D03B06,구판장/직판장,G47129,기타 음·식료품 위주 종합 소매업,50,제주특별자치도,50130,서귀포시,5013025300,남원읍,5013025326,남원읍,5.01E+18,1,대지,1555,,제주특별자치도 서귀포시 남원읍 신흥리 1555,5.01E+11,제주특별자치도 서귀포시 남원읍 태신로130번길,170,,5.01E+24,제주감귤농협제2유통센터,제주특별자치도 서귀포시 남원읍 태신로130번길 170,699947,63616,,,,126.7439967,33.31273133
20489847,나무,,Q,음식,Q12,커피점/카페,Q12A06,전통찻집/인삼찻집,I56220,비알콜 음료점업,50,제주특별자치도,50110,제주시,5011025900,조천읍,5011025930,조천읍,5.01E+18,1,대지,468,12,제주특별자치도 제주시 조천읍 선흘리 468-12,5.01E+11,제주특별자치도 제주시 조천읍 선교로,560,,5.01E+24,,제주특별자치도 제주시 조천읍 선교로 560,695967,63341,,1,,126.710438,33.45618638
24381271,해륙개발산업사,,D,소매,D07,가정/주방/인테리어,D07A15,유리/페인트/철물건축자재,G47519,"페인트, 유리 및 기타 건설자재 소매업",50,제주특별자치도,50110,제주시,5011055000,삼도1동,5011010500,삼도일동,5.01E+18,1,대지,578,2,제주특별자치도 제주시 삼도일동 578-2,5.01E+11,제주특별자치도 제주시 서광로20길,3,6,5.01E+24,,제주특별자치도 제주시 서광로20길 3-6,690846,63186,,,,126.522514,33.49896964
21657037,서부철물건재사,,D,소매,D21,철물/난방/건설자재소매,D21A06,철물/건설자재소매,G47511,철물 및 난방용구 소매업,50,제주특별자치도,50110,제주시,5011058000,용담2동,5011010900,용담이동,5.01E+18,1,대지,359,129,제주특별자치도 제주시 용담이동 359-129,5.01E+11,제주특별자치도 제주시 용두암길,64,,5.01E+24,,제주특별자치도 제주시 용두암길 64,690821,63152,,1,,126.5134665,33.51203336
20753913,잉글리쉬무무,동광보습학원,R,학문/교육,R04,학원-어학,R04A01,학원-외국어/어학,P85502,외국어학원,50,제주특별자치도,50110,제주시,5011052000,일도2동,5011010200,일도이동,5.01E+18,1,대지,85,3,제주특별자치도 제주시 일도이동 85-3,5.01E+11,제주특별자치도 제주시 연신로,17,,5.01E+24,,제주특별자치도 제주시 연신로 17,690831,63261,,3,,126.5451277,33.49934545
24890404,소심한책방,,D,소매,D13,책/서적/도서,D13A01,서점,G47611,서적 및 잡지류 소매업,50,제주특별자치도,50110,제주시,5011025600,구좌읍,5011025632,구좌읍,5.01E+18,1,대지,738,,제주특별자치도 제주시 구좌읍 종달리 738,5.01E+11,제주특별자치도 제주시 구좌읍 종달동길,29,10,5.01E+24,,제주특별자치도 제주시 구좌읍 종달동길 29-10,695976,63364,,,,126.9033367,33.49163745
24295780,사랑방고가구,,D,소매,D15,가구소매,D15A01,일반가구소매,G47520,가구 소매업,50,제주특별자치도,50130,서귀포시,5013053000,중앙동,5013010100,서귀동,5.01E+18,1,대지,273,2,제주특별자치도 서귀포시 서귀동 273-2,5.01E+11,제주특별자치도 서귀포시 중앙로42번길,36,,5.01E+24,,제주특별자치도 서귀포시 중앙로42번길 36,697842,63591,,,,126.5654642,33.24880354
23505132,우도회초밥,,Q,음식,Q03,일식/수산물,Q03A03,음식점-초밥전문,I56113,일식 음식점업,50,제주특별자치도,50110,제주시,5011033000,우도면,5011033021,우도면,5.01E+18,1,대지,2427,3,제주특별자치도 제주시 우도면 연평리 2427-3,5.01E+11,제주특별자치도 제주시 우도면 우도해안길,336,,5.01E+24,,제주특별자치도 제주시 우도면 우도해안길 336,695980,63365,,,,126.9438769,33.50814681
21659745,강정코사마트,,D,소매,D03,종합소매점,D03A02,수퍼마켓,G47121,슈퍼마켓,50,제주특별자치도,50130,서귀포시,5013060000,대천동,5013011600,강정동,5.01E+18,1,대지,4445,7,제주특별자치도 서귀포시 강정동 4445-7,5.01E+11,제주특별자치도 서귀포시 말질로,178,,5.01E+24,강정코사마트,제주특별자치도 서귀포시 말질로 178,697829,63563,,1,,126.4798248,33.23581288
21661349,기러기왕수학교실,,R,학문/교육,R01,학원-보습교습입시,R01A01,학원-입시,P85501,일반 교과 학원,50,제주특별자치도,50110,제주시,5011054000,이도2동,5011010400,이도이동,5.01E+18,1,대지,1024,3,제주특별자치도 제주시 이도이동 1024-3,5.01E+11,제주특별자치도 제주시 연삼로,386,1,5.01E+24,,제주특별자치도 제주시 연삼로 386-1,690826,63222,,2,,126.5332592,33.49417472
15569769,광동헬스,,P,스포츠,P02,실내운동시설,P02A13,헬스클럽,R91132,체력단련시설 운영업,50,제주특별자치도,50110,제주시,5011065000,연동,5011013700,연동,5.01E+18,1,대지,262,31,제주특별자치도 제주시 연동 262-31,5.01E+11,제주특별자치도 제주시 신광로8길,7,,5.01E+24,연동태림아파트,제주특별자치도 제주시 신광로8길 7,690813,63131,,3,,126.4889566,33.48682649
24937224,탐나라망고농장,,D,소매,D01,음/식료품소매,D01A13,청과물소매,G47214,과실 및 채소 소매업,50,제주특별자치도,50130,서귀포시,5013025000,대정읍,5013025027,대정읍,5.01E+18,1,대지,1441,1,제주특별자치도 서귀포시 대정읍 신평리 1441-1,5.01E+11,제주특별자치도 서귀포시 대정읍 일주서로3000번길,294,11,5.01E+24,상하의망고농장,제주특별자치도 서귀포시 대정읍 일주서로3000번길 294-11,699931,63516,,,,126.2421898,33.26636353
20543750,샛별문구구내,,D,소매,D08,사무/문구/컴퓨터,D08A01,사무/문구용품,G47612,문구용품 소매업,50,제주특별자치도,50110,제주시,5011060000,화북동,5011011100,화북일동,5.01E+18,1,대지,3992,3,제주특별자치도 제주시 화북일동 3992-3,5.01E+11,제주특별자치도 제주시 진서로1길,11,,5.01E+24,,제주특별자치도 제주시 진서로1길 11,690061,63293,,1,,126.5626185,33.51929416
26586581,G&SEA,,D,소매,D14,운동/경기용품소매,D14A01,운동/경기용품,G47631,운동 및 경기용품 소매업,50,제주특별자치도,50110,제주시,5011025300,애월읍,5011025334,애월읍,5.01E+18,1,대지,1819,37,제주특별자치도 제주시 애월읍 애월리 1819-37,5.01E+11,제주특별자치도 제주시 애월읍 애월해안로,56,,5.01E+24,,제주특별자치도 제주시 애월읍 애월해안로 56,695913,63043,,,,126.3203503,33.46709368
24024574,제주도수출육가공협의회,,D,소매,D01,음/식료품소매,D01A06,육류소매,G47212,육류 소매업,50,제주특별자치도,50130,서귀포시,5013025000,대정읍,5013025027,대정읍,5.01E+18,1,대지,1491,,제주특별자치도 서귀포시 대정읍 신평리 1491,5.01E+11,제주특별자치도 서귀포시 대정읍 일주서로3000번길,259,,5.01E+24,,제주특별자치도 서귀포시 대정읍 일주서로3000번길 259,699931,63516,,,,126.2377843,33.26502996
21663366,동방네온,,F,생활서비스,F12,광고/인쇄,F12A02,간판제작종합,C33910,간판 및 광고물 제조업,50,제주특별자치도,50110,제주시,5011060000,화북동,5011011200,화북이동,5.01E+18,1,대지,3598,,제주특별자치도 제주시 화북이동 3598,5.01E+11,제주특별자치도 제주시 거로남3길,15,,5.01E+24,,제주특별자치도 제주시 거로남3길 15,690061,63296,,1,,126.560281,33.51095447
28503452,봄꽃게스트하우스,,O,숙박,O05,민박/하숙,O05A01,민박/하숙,,,50,제주특별자치도,50130,서귀포시,5013025000,대정읍,5013025022,대정읍,5.01E+18,1,대지,1046,1,제주특별자치도 서귀포시 대정읍 하모리 1046-1,5.01E+11,제주특별자치도 서귀포시 대정읍 신영로,71,3,5.01E+24,,제주특별자치도 서귀포시 대정읍 신영로 71-3,699935,63507,,1,,126.2505634,33.220998
21663828,한림공인중개사,,L,부동산,L01,부동산중개,L01A01,부동산중개,L68221,부동산 자문 및 중개업,50,제주특별자치도,50110,제주시,5011025000,한림읍,5011025024,한림읍,5.01E+18,1,대지,1035,3,제주특별자치도 제주시 한림읍 한림리 1035-3,5.01E+11,제주특별자치도 제주시 한림읍 명랑로,24,,5.01E+24,,제주특별자치도 제주시 한림읍 명랑로 24,695932,63029,,1,,126.2673798,33.41430981
21664426,한국해동검도용문본관,,R,학문/교육,R07,학원-예능취미체육,R07A22,검도도장,P85611,스포츠 교육기관,50,제주특별자치도,50110,제주시,5011058000,용담2동,5011010900,용담이동,5.01E+18,1,대지,358,2,제주특별자치도 제주시 용담이동 358-2,5.01E+11,제주특별자치도 제주시 용담로,98,10,5.01E+24,,제주특별자치도 제주시 용담로 98-10,690821,63156,,2,,126.5122622,33.51134272
24822684,한라산청정둘레벌꿀,,D,소매,D01,음/식료품소매,D01A13,청과물소매,G47214,과실 및 채소 소매업,50,제주특별자치도,50130,서귀포시,5013025300,남원읍,5013025329,남원읍,5.01E+18,1,대지,973,1,제주특별자치도 서귀포시 남원읍 신례리 973-1,5.01E+11,제주특별자치도 서귀포시 남원읍 신례로,266,,5.01E+24,,제주특별자치도 서귀포시 남원읍 신례로 266,699943,63608,,,,126.630732,33.28837214
21665493,세림공업사,,F,생활서비스,F14,자동차/이륜차,F14A01,자동차정비/카센타,,,50,제주특별자치도,50110,제주시,5011025600,구좌읍,5011025628,구좌읍,5.01E+18,1,대지,1013,1,제주특별자치도 제주시 구좌읍 세화리 1013-1,5.01E+11,제주특별자치도 제주시 구좌읍 세화남3길,4,,5.01E+24,,제주특별자치도 제주시 구좌읍 세화남3길 4,695973,63352,,1,,126.8540882,33.51666255
21649105,천지개발,,F,생활서비스,F05,인력/고용/용역알선,F05A02,인력공급/고용알선,,,50,제주특별자치도,50130,서귀포시,5013054000,천지동,5013010100,서귀동,5.01E+18,1,대지,300,6,제주특별자치도 서귀포시 서귀동 300-6,5.01E+11,제주특별자치도 서귀포시 천지로,54,,5.01E+24,,제주특별자치도 서귀포시 천지로 54,697844,63593,,1,,126.5595517,33.25207117
21649723,유영보일러,,D,소매,D21,철물/난방/건설자재소매,D21A02,보일러/냉난방용품,G47511,철물 및 난방용구 소매업,50,제주특별자치도,50110,제주시,5011025000,한림읍,5011025035,한림읍,5.01E+18,1,대지,889,1,제주특별자치도 제주시 한림읍 한수리 889-1,5.01E+11,제주특별자치도 제주시 한림읍 한수5길,8,,5.01E+24,,제주특별자치도 제주시 한림읍 한수5길 8,695933,63031,,1,,126.2633288,33.421781
28515283,더들집,,O,숙박,O03,캠프/별장/펜션,O03A01,캠프/별장/펜션,I55119,기타 관광숙박시설 운영업,50,제주특별자치도,50110,제주시,5011025600,구좌읍,5011025621,구좌읍,5.01E+18,1,대지,1607,,제주특별자치도 제주시 구좌읍 동복리 1607,5.01E+11,제주특별자치도 제주시 구좌읍 동복로1길,23,3,5.01E+24,,제주특별자치도 제주시 구좌읍 동복로1길 23-3,695972,63347,,,,126.7128798,33.55431486
21649410,남원종합장식,,D,소매,D07,가정/주방/인테리어,D07A14,지물판매,G47513,벽지 및 장판류 소매업,50,제주특별자치도,50130,서귀포시,5013025300,남원읍,5013025321,남원읍,5.01E+18,1,대지,1342,9,제주특별자치도 서귀포시 남원읍 남원리 1342-9,5.01E+11,제주특별자치도 서귀포시 남원읍 태위로,635,,5.01E+24,,제주특별자치도 서귀포시 남원읍 태위로 635,699941,63621,,,,126.714641,33.27807901
24491114,해냄교육,,D,소매,D13,책/서적/도서,D13A03,서적/신문소매,G47611,서적 및 잡지류 소매업,50,제주특별자치도,50110,제주시,5011066000,노형동,5011012200,노형동,5.01E+18,1,대지,728,,제주특별자치도 제주시 노형동 728,5.01E+11,제주특별자치도 제주시 과원북4길,27,,5.01E+24,보성빌딩,제주특별자치도 제주시 과원북4길 27,690802,63085,,,,126.4853406,33.48130982
20650790,월계,,Q,음식,Q01,한식,Q01A01,한식/백반/한정식,I56111,한식 음식점업,50,제주특별자치도,50110,제주시,5011063000,아라동,5011013500,월평동,5.01E+18,1,대지,1088,2,제주특별자치도 제주시 월평동 1088-2,5.01E+11,제주특별자치도 제주시 월평1길,8,,5.01E+24,,제주특별자치도 제주시 월평1길 8,690130,63311,,,,126.5737968,33.47171171
21650249,우현청과,,D,소매,D01,음/식료품소매,D01A13,청과물소매,G47214,과실 및 채소 소매업,50,제주특별자치도,50110,제주시,5011060000,화북동,5011011200,화북이동,5.01E+18,1,대지,2979,18,제주특별자치도 제주시 화북이동 2979-18,5.01E+11,제주특별자치도 제주시 황사평6길,69,1,5.01E+24,,제주특별자치도 제주시 황사평6길 69-1,690838,63305,,1,,126.5612099,33.4938443
21559723,대우자동차제주정비사업소,,F,생활서비스,F14,자동차/이륜차,F14A01,자동차정비/카센타,,,50,제주특별자치도,50110,제주시,5011060000,화북동,5011011100,화북일동,5.01E+18,1,대지,2163,2,제주특별자치도 제주시 화북일동 2163-2,5.01E+11,제주특별자치도 제주시 선반남2길,63,,5.01E+24,,제주특별자치도 제주시 선반남2길 63,690838,63299,,1,,126.5661801,33.51284408
28518180,섬집오후,,O,숙박,O03,캠프/별장/펜션,O03A01,캠프/별장/펜션,I55119,기타 관광숙박시설 운영업,50,제주특별자치도,50110,제주시,5011025900,조천읍,5011025923,조천읍,5.01E+18,1,대지,3083,,제주특별자치도 제주시 조천읍 조천리 3083,5.01E+11,제주특별자치도 제주시 조천읍 조천7길,19,11,5.01E+24,,제주특별자치도 제주시 조천읍 조천7길 19-11,695964,63331,,,,126.6343304,33.53824553
21646797,중문골프존클럽,,P,스포츠,P02,실내운동시설,P02A10,실내골프연습장,R91136,골프연습장 운영업,50,제주특별자치도,50130,서귀포시,5013061000,중문동,5013011200,중문동,5.01E+18,1,대지,1923,4,제주특별자치도 서귀포시 중문동 1923-4,5.01E+11,제주특별자치도 서귀포시 천제연로,244,,5.01E+24,골프연습장,제주특별자치도 서귀포시 천제연로 244,697857,63546,,,,126.4308239,33.25100022
20821519,잉글리쉬프렌즈,,R,학문/교육,R04,학원-어학,R04A01,학원-외국어/어학,P85502,외국어학원,50,제주특별자치도,50110,제주시,5011065000,연동,5011013700,연동,5.01E+18,1,대지,314,40,제주특별자치도 제주시 연동 314-40,5.01E+11,제주특별자치도 제주시 비월길,19,,5.01E+24,,제주특별자치도 제주시 비월길 19,690815,63134,,2,,126.4973452,33.48393529
20554069,해맞이동산,,Q,음식,Q01,한식,Q01A01,한식/백반/한정식,I56111,한식 음식점업,50,제주특별자치도,50130,서귀포시,5013032000,표선면,5013032023,표선면,5.01E+18,1,대지,2060,1,제주특별자치도 서귀포시 표선면 성읍리 2060-1,5.01E+11,제주특별자치도 서귀포시 표선면 번영로,2658,2,5.01E+24,,제주특별자치도 서귀포시 표선면 번영로 2658-2,699912,63624,,,,126.7872147,33.39829273
20554140,진산,,Q,음식,Q01,한식,Q01A01,한식/백반/한정식,I56111,한식 음식점업,50,제주특별자치도,50110,제주시,5011052000,일도2동,5011010200,일도이동,5.01E+18,1,대지,138,17,제주특별자치도 제주시 일도이동 138-17,5.01E+11,제주특별자치도 제주시 동문로,146,,5.01E+24,,제주특별자치도 제주시 동문로 146,690832,63250,,1,,126.5419058,33.51307462
21598438,남양리조텔,,O,숙박,O01,호텔/콘도,O01A01,호텔/콘도,,,50,제주특별자치도,50130,서귀포시,5013052000,정방동,5013010100,서귀동,5.01E+18,1,대지,163,11,제주특별자치도 서귀포시 서귀동 163-11,5.01E+11,제주특별자치도 서귀포시 태평로,438,,5.01E+24,남양리조텔,제주특별자치도 서귀포시 태평로 438,697841,63595,,1,,126.567071,33.24568445
28516831,흙집휴펜션,,O,숙박,O03,캠프/별장/펜션,O03A01,캠프/별장/펜션,I55119,기타 관광숙박시설 운영업,50,제주특별자치도,50110,제주시,5011025300,애월읍,5011025325,애월읍,5.01E+18,1,대지,1319,1,제주특별자치도 제주시 애월읍 수산리 1319-1,5.01E+11,제주특별자치도 제주시 애월읍 하소로,302,,5.01E+24,,제주특별자치도 제주시 애월읍 하소로 302,695911,63056,,,,126.3901455,33.45578577
24507866,제주공방,,D,소매,D07,가정/주방/인테리어,D07A01,인테리어/욕실용품/커튼,G47599,그외 기타 분류안된 가정용품 소매업,50,제주특별자치도,50110,제주시,5011065000,연동,5011013700,연동,5.01E+18,1,대지,272,33,제주특별자치도 제주시 연동 272-33,5.01E+11,제주특별자치도 제주시 신대로12길,51,,5.01E+24,로얄쇼핑센타및오피스텔,제주특별자치도 제주시 신대로12길 51,690720,63124,,1,,126.4911646,33.48855736
21582510,원보슈퍼마,,D,소매,D03,종합소매점,D03A02,수퍼마켓,G47121,슈퍼마켓,50,제주특별자치도,50130,서귀포시,5013053000,중앙동,5013010100,서귀동,5.01E+18,1,대지,275,6,제주특별자치도 서귀포시 서귀동 275-6,5.01E+11,제주특별자치도 서귀포시 중정로73번길,9,,5.01E+24,완보마트,제주특별자치도 서귀포시 중정로73번길 9,697842,63591,,1,,126.5639279,33.24891204
15479849,올리브영,제주외도점,D,소매,D03,종합소매점,D03B04,시장/종합상가,G47129,기타 음·식료품 위주 종합 소매업,50,제주특별자치도,50110,제주시,5011067000,외도동,5011012300,외도일동,5.01E+18,1,대지,637,3,제주특별자치도 제주시 외도일동 637-3,5.01E+11,제주특별자치도 제주시 우정로,79,,5.01E+24,,제주특별자치도 제주시 우정로 79,690191,63070,,,,126.4311789,33.48558555
28506766,그린게스트하우스,,O,숙박,O05,민박/하숙,O05A01,민박/하숙,,,50,제주특별자치도,50130,서귀포시,5013025900,성산읍,5013025922,성산읍,5.01E+18,1,대지,13,2,제주특별자치도 서귀포시 성산읍 오조리 13-2,5.01E+11,제주특별자치도 서귀포시 성산읍 한도로,120,,5.01E+24,그린식당,제주특별자치도 서귀포시 성산읍 한도로 120,699906,63639,,,,126.9207551,33.46848324
22945738,웅담,,Q,음식,Q01,한식,Q01A99,기타고기요리,I56111,한식 음식점업,50,제주특별자치도,50110,제주시,5011025000,한림읍,5011025024,한림읍,5.01E+18,1,대지,1587,2,제주특별자치도 제주시 한림읍 한림리 1587-2,5.01E+11,제주특별자치도 제주시 한림읍 한림로5길,23,,5.01E+24,,제주특별자치도 제주시 한림읍 한림로5길 23,695932,63032,,,,126.2614162,33.4147132
20728675,해한수학학원,,R,학문/교육,R01,학원-보습교습입시,R01A01,학원-입시,P85501,일반 교과 학원,50,제주특별자치도,50110,제주시,5011052000,일도2동,5011010200,일도이동,5.01E+18,1,대지,994,15,제주특별자치도 제주시 일도이동 994-15,5.01E+11,제주특별자치도 제주시 동문로,60,,5.01E+24,,제주특별자치도 제주시 동문로 60,690834,63265,,,,126.5330882,33.51324098
21482688,무궁화꽃집,,D,소매,D02,선물/팬시/기념품,D02A02,꽃집/꽃배달,G47851,화초 및 산식물 소매업,50,제주특별자치도,50110,제주시,5011052000,일도2동,5011010200,일도이동,5.01E+18,1,대지,90,6,제주특별자치도 제주시 일도이동 90-6,5.01E+11,제주특별자치도 제주시 태성로3길,32,,5.01E+24,,제주특별자치도 제주시 태성로3길 32,690831,63261,,,,126.5480023,33.50055122
24909853,해법중국어학원,,R,학문/교육,R04,학원-어학,R04A01,학원-외국어/어학,P85502,외국어학원,50,제주특별자치도,50110,제주시,5011066000,노형동,5011012200,노형동,5.01E+18,1,대지,2612,6,제주특별자치도 제주시 노형동 2612-6,5.01E+11,제주특별자치도 제주시 정존11길,25,,5.01E+24,,제주특별자치도 제주시 정존11길 25,690805,63102,,,,126.4751071,33.48571018
21565465,금남알미늄유리,,D,소매,D21,철물/난방/건설자재소매,D21A08,셔터/새시판매,G47511,철물 및 난방용구 소매업,50,제주특별자치도,50110,제주시,5011055000,삼도1동,5011010500,삼도일동,5.01E+18,1,대지,710,4,제주특별자치도 제주시 삼도일동 710-4,5.01E+11,제주특별자치도 제주시 서사로4길,25,,5.01E+24,,제주특별자치도 제주시 서사로4길 25,690811,63172,,1,,126.5175748,33.50906233
24317692,갈릴리기업,,D,소매,D07,가정/주방/인테리어,D07A15,유리/페인트/철물건축자재,G47519,"페인트, 유리 및 기타 건설자재 소매업",50,제주특별자치도,50110,제주시,5011053000,이도1동,5011010300,이도일동,5.01E+18,1,대지,1245,2,제주특별자치도 제주시 이도일동 1245-2,5.01E+11,제주특별자치도 제주시 동광로,39,1,5.01E+24,,제주특별자치도 제주시 동광로 39-1,690828,63196,,,,126.5330281,33.502773
28505734,최씨네구름밭하우스,,O,숙박,O03,캠프/별장/펜션,O03A01,캠프/별장/펜션,I55119,기타 관광숙박시설 운영업,50,제주특별자치도,50110,제주시,5011025600,구좌읍,5011025631,구좌읍,5.01E+18,1,대지,342,,제주특별자치도 제주시 구좌읍 하도리 342,5.01E+11,제주특별자치도 제주시 구좌읍 문주란로,142,,5.01E+24,,제주특별자치도 제주시 구좌읍 문주란로 142,695976,63363,,,,126.8971278,33.5213179
24288108,대우자동차정비사업소,,F,생활서비스,F14,자동차/이륜차,F14A01,자동차정비/카센타,,,50,제주특별자치도,50110,제주시,5011054000,이도2동,5011012900,도남동,5.01E+18,1,대지,83,1,제주특별자치도 제주시 도남동 83-1,5.01E+11,제주특별자치도 제주시 도남로9길,16,,5.01E+24,,제주특별자치도 제주시 도남로9길 16,690807,63205,,,,126.5291474,33.4942522
28510909,빨간궁전,,O,숙박,O03,캠프/별장/펜션,O03A01,캠프/별장/펜션,I55119,기타 관광숙박시설 운영업,50,제주특별자치도,50110,제주시,5011025300,애월읍,5011025334,애월읍,5.01E+18,1,대지,21,,제주특별자치도 제주시 애월읍 애월리 21,5.01E+11,제주특별자치도 제주시 애월읍 고내봉길,42,9,5.01E+24,,제주특별자치도 제주시 애월읍 고내봉길 42-9,695913,63044,,1,,126.3352562,33.45937921
20627366,케이마트정육코너,,D,소매,D01,음/식료품소매,D01A03,정육점,G47212,육류 소매업,50,제주특별자치도,50110,제주시,5011066000,노형동,5011012200,노형동,5.01E+18,1,대지,1059,5,제주특별자치도 제주시 노형동 1059-5,5.01E+11,제주특별자치도 제주시 정존11길,36,,5.01E+24,,제주특별자치도 제주시 정존11길 36,690803,63099,,,,126.4747343,33.48672436
20837204,한라카페테리아,,Q,음식,Q12,커피점/카페,Q12A01,커피전문점/카페/다방,I56220,비알콜 음료점업,50,제주특별자치도,50110,제주시,5011063000,아라동,5011011700,아라일동,5.01E+18,1,대지,1,,제주특별자치도 제주시 아라일동 1,5.01E+11,제주특별자치도 제주시 제주대학로,64,29,5.01E+24,아라인빌아파트,제주특별자치도 제주시 제주대학로 64-29,690756,63243,,2,,126.5568971,33.45608099
22962414,현대이용원,,F,생활서비스,F01,이/미용/건강,F01A04,남성미용실,S96111,이용업,50,제주특별자치도,50130,서귀포시,5013032000,표선면,5013032021,표선면,5.01E+18,1,대지,604,,제주특별자치도 서귀포시 표선면 표선리 604,5.01E+11,제주특별자치도 서귀포시 표선면 표선동서로,252,,5.01E+24,,제주특별자치도 서귀포시 표선면 표선동서로 252,699914,63629,,,,126.8331731,33.32623284
20642277,별밤,,Q,음식,Q09,유흥주점,Q09A10,룸살롱/단란주점,I56211,일반유흥 주점업,50,제주특별자치도,50110,제주시,5011066000,노형동,5011012200,노형동,5.01E+18,1,대지,1280,3,제주특별자치도 제주시 노형동 1280-3,5.01E+11,제주특별자치도 제주시 월랑로,6,,5.01E+24,,제주특별자치도 제주시 월랑로 6,690803,63098,,-1,,126.4782429,33.4872814
20233177,에덴분식,,Q,음식,Q04,분식,Q04A01,라면김밥분식,I56194,분식 및 김밥 전문점,50,제주특별자치도,50130,서귀포시,5013053000,중앙동,5013010100,서귀동,5.01E+18,1,대지,273,8,제주특별자치도 서귀포시 서귀동 273-8,5.01E+11,제주특별자치도 서귀포시 중정로73번길,2,,5.01E+24,SK텔레콤,제주특별자치도 서귀포시 중정로73번길 2,697842,63591,,,,126.5642714,33.24824881
21571098,공립동홍어린이집,,R,학문/교육,R08,유아교육,R08A02,어린이집,Q87210,보육시설 운영업,50,제주특별자치도,50130,서귀포시,5013057000,동홍동,5013010500,동홍동,5.01E+18,1,대지,1312,,제주특별자치도 서귀포시 동홍동 1312,5.01E+11,제주특별자치도 서귀포시 중앙로,198,9,5.01E+24,동홍6주공아파트,제주특별자치도 서귀포시 중앙로 198-9,697706,63585,,1,,126.5597893,33.26244245
25023548,1158NAIL,,F,생활서비스,F01,이/미용/건강,F01A02,발/네일케어,S96119,기타미용업,50,제주특별자치도,50110,제주시,5011025300,애월읍,5011025333,애월읍,5.01E+18,1,대지,1158,,제주특별자치도 제주시 애월읍 고내리 1158,5.01E+11,제주특별자치도 제주시 애월읍 애월해안로,230,,5.01E+24,아키제주1205,제주특별자치도 제주시 애월읍 애월해안로 230,695901,63045,,2,,126.3365612,33.4670779
28518767,블랑블루펜션,,O,숙박,O05,민박/하숙,O05A01,민박/하숙,,,50,제주특별자치도,50130,서귀포시,5013025300,남원읍,5013025321,남원읍,5.01E+18,1,대지,91,7,제주특별자치도 서귀포시 남원읍 남원리 91-7,5.01E+11,제주특별자치도 서귀포시 남원읍 남태해안로,135,,5.01E+24,,제주특별자치도 서귀포시 남원읍 남태해안로 135,699941,63621,,1,,126.7196409,33.27823881
20843033,우성미용실,,F,생활서비스,F01,이/미용/건강,F01A01,여성미용실,S96112,두발미용업,50,제주특별자치도,50110,제주시,5011052000,일도2동,5011010200,일도이동,5.01E+18,1,대지,113,,제주특별자치도 제주시 일도이동 113,5.01E+11,제주특별자치도 제주시 태성로,3,,5.01E+24,우성아파트,제주특별자치도 제주시 태성로 3,690778,63262,,2,,126.5478415,33.50245166
21493299,명품인테리어,,D,소매,D07,가정/주방/인테리어,D07A14,지물판매,G47513,벽지 및 장판류 소매업,50,제주특별자치도,50110,제주시,5011058000,용담2동,5011010900,용담이동,5.01E+18,1,대지,645,1,제주특별자치도 제주시 용담이동 645-1,5.01E+11,제주특별자치도 제주시 용문로,143,,5.01E+24,,제주특별자치도 제주시 용문로 143,690821,63160,,,,126.5093761,33.5076747
25191594,백록조명기술,,D,소매,D07,가정/주방/인테리어,D07A10,조명기구/전기용품,G47591,전기용품 및 조명장치 소매업,50,제주특별자치도,50110,제주시,5011065000,연동,5011013700,연동,5.01E+18,1,대지,279,2,제주특별자치도 제주시 연동 279-2,5.01E+11,제주특별자치도 제주시 신대로22길,40,,5.01E+24,벽강하이본타워,제주특별자치도 제주시 신대로22길 40,690814,63136,,,,126.4911934,33.48255326
28508917,메이플해피하우스펜션,,O,숙박,O03,캠프/별장/펜션,O03A01,캠프/별장/펜션,I55119,기타 관광숙박시설 운영업,50,제주특별자치도,50110,제주시,5011025000,한림읍,5011025027,한림읍,5.01E+18,1,대지,1619,2,제주특별자치도 제주시 한림읍 명월리 1619-2,5.01E+11,제주특별자치도 제주시 한림읍 명월로,108,,5.01E+24,,제주특별자치도 제주시 한림읍 명월로 108,695927,63014,,,,126.2675205,33.38393884
25064865,제주누림가구,,D,소매,D15,가구소매,D15A01,일반가구소매,G47520,가구 소매업,50,제주특별자치도,50110,제주시,5011066000,노형동,5011012200,노형동,5.01E+18,1,대지,2346,1,제주특별자치도 제주시 노형동 2346-1,5.01E+11,제주특별자치도 제주시 노형로,321,,5.01E+24,경산빌딩,제주특별자치도 제주시 노형로 321,690840,63105,,2,,126.471593,33.48057304
25953721,장독대찻집,,Q,음식,Q12,커피점/카페,Q12A06,전통찻집/인삼찻집,I56220,비알콜 음료점업,50,제주특별자치도,50110,제주시,5011065000,연동,5011013700,연동,5.01E+18,1,대지,283,4,제주특별자치도 제주시 연동 283-4,5.01E+11,제주특별자치도 제주시 신대로14길,33,,5.01E+24,,제주특별자치도 제주시 신대로14길 33,690814,63123,,,,126.4929557,33.48765054
28500789,거로상사,,D,소매,D07,가정/주방/인테리어,D07A15,유리/페인트/철물건축자재,G47519,"페인트, 유리 및 기타 건설자재 소매업",50,제주특별자치도,50110,제주시,5011060000,화북동,5011011200,화북이동,5.01E+18,1,대지,3653,1,제주특별자치도 제주시 화북이동 3653-1,5.01E+11,제주특별자치도 제주시 선반로2길,24,,5.01E+24,,제주특별자치도 제주시 선반로2길 24,690061,63296,,1,,126.5593035,33.51279134
25319067,한거리푸줏간,,Q,음식,Q01,한식,Q01A99,기타고기요리,I56111,한식 음식점업,50,제주특별자치도,50110,제주시,5011025600,구좌읍,5011025626,구좌읍,5.01E+18,1,대지,468,1,제주특별자치도 제주시 구좌읍 월정리 468-1,5.01E+11,제주특별자치도 제주시 구좌읍 월정3길,49,,5.01E+24,,제주특별자치도 제주시 구좌읍 월정3길 49,695975,63358,,1,,126.7944354,33.55540641
15636344,삼정카센타,,F,생활서비스,F14,자동차/이륜차,F14A01,자동차정비/카센타,,,50,제주특별자치도,50130,서귀포시,5013058000,서홍동,5013010600,서홍동,5.01E+18,1,대지,296,7,제주특별자치도 서귀포시 서홍동 296-7,5.01E+11,제주특별자치도 서귀포시 중앙로195번길,23,,5.01E+24,알뜰빌라,제주특별자치도 서귀포시 중앙로195번길 23,697849,63584,,,,126.5564197,33.26177225
11718825,영산강가마솥,,Q,음식,Q01,한식,Q01A01,한식/백반/한정식,I56111,한식 음식점업,50,제주특별자치도,50110,제주시,5011063000,아라동,5011011800,아라이동,5.01E+18,1,대지,1474,1,제주특별자치도 제주시 아라이동 1474-1,5.01E+11,제주특별자치도 제주시 중앙로,437,,5.01E+24,,제주특별자치도 제주시 중앙로 437,690122,63246,,1,,126.5438303,33.48428289
28487437,대성식당,,Q,음식,Q01,한식,Q01A03,곱창/양구이전문,I56111,한식 음식점업,50,제주특별자치도,50110,제주시,5011025900,조천읍,5011025924,조천읍,5.01E+18,1,대지,3219,1,제주특별자치도 제주시 조천읍 함덕리 3219-1,5.01E+11,제주특별자치도 제주시 조천읍 함덕3길,4,,5.01E+24,,제주특별자치도 제주시 조천읍 함덕3길 4,695965,63333,,,,126.6579551,33.54428301
22750057,Y수학,,R,학문/교육,R01,학원-보습교습입시,R01A01,학원-입시,P85501,일반 교과 학원,50,제주특별자치도,50110,제주시,5011052000,일도2동,5011010200,일도이동,5.01E+18,1,대지,47,,제주특별자치도 제주시 일도이동 47,5.01E+11,제주특별자치도 제주시 천수로8길,18,,5.01E+24,일도삼주아파트,제주특별자치도 제주시 천수로8길 18,690830,63258,,,,126.5428507,33.50422326
28494433,송악산장,,O,숙박,O03,캠프/별장/펜션,O03A01,캠프/별장/펜션,I55119,기타 관광숙박시설 운영업,50,제주특별자치도,50130,서귀포시,5013031000,안덕면,5013031026,안덕면,5.01E+18,1,대지,1491,,제주특별자치도 서귀포시 안덕면 덕수리 1491,5.01E+11,제주특별자치도 서귀포시 안덕면 평화로319번길,163,,5.01E+24,송악별장,제주특별자치도 서귀포시 안덕면 평화로319번길 163,699922,63527,,,,126.3168335,33.28076686
20551594,세흥장식,,Q,음식,Q01,한식,Q01A02,갈비/삼겹살,I56111,한식 음식점업,50,제주특별자치도,50110,제주시,5011052000,일도2동,5011010200,일도이동,5.01E+18,1,대지,981,24,제주특별자치도 제주시 일도이동 981-24,5.01E+11,제주특별자치도 제주시 동문로,96,,5.01E+24,,제주특별자치도 제주시 동문로 96,690834,63266,,1,,126.5368466,33.51375425
20248798,제주우체국,,F,생활서비스,F04,운송/배달/택배,F04B08,우체국/우편물취급소,J61100,우편업,50,제주특별자치도,50110,제주시,5011056000,삼도2동,5011010600,삼도이동,5.01E+18,1,대지,10,2,제주특별자치도 제주시 삼도이동 10-2,5.01E+11,제주특별자치도 제주시 탑동로3길,7,,5.01E+24,체신아파트,제주특별자치도 제주시 탑동로3길 7,690808,63166,,,,126.5222434,33.51679048
28522210,CU제주서호혁신점,제주서호혁신점,D,소매,D03,종합소매점,D03A01,편의점,G47122,체인화 편의점,50,제주특별자치도,50130,서귀포시,5013059000,대륜동,5013010300,서호동,5.01E+18,1,대지,1550,9,제주특별자치도 서귀포시 서호동 1550-9,5.01E+11,제주특별자치도 서귀포시 서호남로32번길,39,,5.01E+24,,제주특별자치도 서귀포시 서호남로32번길 39,697100,63568,,1,,126.5146205,33.24962215
22964863,스타성여관,,O,숙박,O02,모텔/여관/여인숙,O02A01,모텔/여관/여인숙,I55112,여관업,50,제주특별자치도,50130,서귀포시,5013054000,천지동,5013010100,서귀동,5.01E+18,1,대지,308,5,제주특별자치도 서귀포시 서귀동 308-5,5.01E+11,제주특별자치도 서귀포시 중앙로71번길,15,4,5.01E+24,스타성모텔,제주특별자치도 서귀포시 중앙로71번길 15-4,697844,63592,,,,126.5597753,33.25021643
28487534,대학로고전떡볶이,,Q,음식,Q04,분식,Q04A03,떡볶이전문,I56194,분식 및 김밥 전문점,50,제주특별자치도,50110,제주시,5011054000,이도2동,5011010400,이도이동,5.01E+18,1,대지,1185,3,제주특별자치도 제주시 이도이동 1185-3,5.01E+11,제주특별자치도 제주시 광양14길,3,,5.01E+24,,제주특별자치도 제주시 광양14길 3,690827,63207,,1,,126.5302754,33.49817842
20540862,골프사랑,,D,소매,D14,운동/경기용품소매,D14A01,운동/경기용품,G47631,운동 및 경기용품 소매업,50,제주특별자치도,50110,제주시,5011066000,노형동,5011012200,노형동,5.01E+18,1,대지,661,,제주특별자치도 제주시 노형동 661,5.01E+11,제주특별자치도 제주시 진군남4길,7,16,5.01E+24,,제주특별자치도 제주시 진군남4길 7-16,690802,63092,,1,,126.4808752,33.47455651
21628100,하이랜드민박,,O,숙박,O05,민박/하숙,O05A01,민박/하숙,,,50,제주특별자치도,50130,서귀포시,5013061000,중문동,5013011400,대포동,5.01E+18,1,대지,2270,,제주특별자치도 서귀포시 대포동 2270,5.01E+11,제주특별자치도 서귀포시 이어도로,244,,5.01E+24,제주하이랜드,제주특별자치도 서귀포시 이어도로 244,697831,63543,,1,,126.4452716,33.24226493
21629002,탐라렌트카,,F,생활서비스,F07,물품기기대여,F07A11,렌트카,L69110,자동차 임대업,50,제주특별자치도,50130,서귀포시,5013054000,천지동,5013010100,서귀동,5.01E+18,1,대지,314,2,제주특별자치도 서귀포시 서귀동 314-2,5.01E+11,제주특별자치도 서귀포시 태평로,347,,5.01E+24,,제주특별자치도 서귀포시 태평로 347,697844,63592,,1,,126.5579211,33.2468139
21454748,지존수학,,R,학문/교육,R01,학원-보습교습입시,R01A01,학원-입시,P85501,일반 교과 학원,50,제주특별자치도,50110,제주시,5011054000,이도2동,5011010400,이도이동,5.01E+18,1,대지,1987,7,제주특별자치도 제주시 이도이동 1987-7,5.01E+11,제주특별자치도 제주시 남광로2길,34,,5.01E+24,,제주특별자치도 제주시 남광로2길 34,690851,63231,,,,126.5391657,33.48975465
28480627,갯것이식당,,Q,음식,Q03,일식/수산물,Q03A05,해물찜/탕전문,I56111,한식 음식점업,50,제주특별자치도,50110,제주시,5011054000,이도2동,5011010400,이도이동,5.01E+18,1,대지,319,1,제주특별자치도 제주시 이도이동 319-1,5.01E+11,제주특별자치도 제주시 가령로1길,25,,5.01E+24,,제주특별자치도 제주시 가령로1길 25,690824,63214,,,,126.5372332,33.50357103
15579801,동암카센타,,F,생활서비스,F14,자동차/이륜차,F14A01,자동차정비/카센타,,,50,제주특별자치도,50110,제주시,5011025900,조천읍,5011025921,조천읍,5.01E+18,1,대지,2589,11,제주특별자치도 제주시 조천읍 신촌리 2589-11,5.01E+11,제주특별자치도 제주시 조천읍 신촌2길,2,,5.01E+24,,제주특별자치도 제주시 조천읍 신촌2길 2,695963,63337,,,,126.618195,33.53128662
20541569,세인트포클럽하우스,,Q,음식,Q01,한식,Q01A01,한식/백반/한정식,I56111,한식 음식점업,50,제주특별자치도,50110,제주시,5011025600,구좌읍,5011025634,구좌읍,5.01E+18,1,대지,5160,2,제주특별자치도 제주시 구좌읍 김녕리 5160-2,5.01E+11,제주특별자치도 제주시 구좌읍 선유로,445,55,5.01E+24,세인트포CC,제주특별자치도 제주시 구좌읍 선유로 445-55,695971,63348,,1,,126.7386655,33.52053589
25337670,제주부씨시무공계종친회,,D,소매,D01,음/식료품소매,D01A13,청과물소매,G47214,과실 및 채소 소매업,50,제주특별자치도,50110,제주시,5011025300,애월읍,5011025325,애월읍,5.01E+18,1,대지,272,,제주특별자치도 제주시 애월읍 수산리 272,5.01E+11,제주특별자치도 제주시 애월읍 예원남1길,69,1,5.01E+24,,제주특별자치도 제주시 애월읍 예원남1길 69-1,695911,63056,,,,126.396877,33.45995706
28504770,제주디아일랜드블루호텔,,O,숙박,O01,호텔/콘도,O01A01,호텔/콘도,,,50,제주특별자치도,50130,서귀포시,5013052000,정방동,5013010100,서귀동,5.01E+18,1,대지,544,2,제주특별자치도 서귀포시 서귀동 544-2,5.01E+11,제주특별자치도 서귀포시 태평로431번길,3,,5.01E+24,디아일랜드블루오피스텔,제주특별자치도 서귀포시 태평로431번길 3,697841,63595,,1,,126.5658242,33.24581434
24102846,대성슈퍼&엘버,,D,소매,D01,음/식료품소매,D01A23,유과판매,G47215,빵 및 과자류 소매업,50,제주특별자치도,50130,서귀포시,5013052000,정방동,5013010100,서귀동,5.01E+18,1,대지,404,,제주특별자치도 서귀포시 서귀동 404,5.01E+11,제주특별자치도 서귀포시 중정로,84,,5.01E+24,,제주특별자치도 서귀포시 중정로 84,697841,63595,,,,126.5652808,33.24820636
28485127,엉덩물물회,,Q,음식,Q03,일식/수산물,Q03A01,횟집,I56111,한식 음식점업,50,제주특별자치도,50110,제주시,5011065000,연동,5011013700,연동,5.01E+18,1,대지,291,116,제주특별자치도 제주시 연동 291-116,5.01E+11,제주특별자치도 제주시 성두길,7,7,5.01E+24,삼우주택,제주특별자치도 제주시 성두길 7-7,690814,63125,,1,,126.4949642,33.49096568
24626132,속옷나라,,D,소매,D05,의복의류,D05A07,셔츠/내의/속옷,,,50,제주특별자치도,50110,제주시,5011054000,이도2동,5011012900,도남동,5.01E+18,1,대지,923,13,제주특별자치도 제주시 도남동 923-13,5.01E+11,제주특별자치도 제주시 신성로,91,,5.01E+24,성환아파트,제주특별자치도 제주시 신성로 91,690806,63200,,,,126.5289927,33.49639611
23902763,선화공인중개사사무소,,L,부동산,L01,부동산중개,L01A01,부동산중개,L68221,부동산 자문 및 중개업,50,제주특별자치도,50110,제주시,5011060000,화북동,5011011100,화북일동,5.01E+18,1,대지,1230,,제주특별자치도 제주시 화북일동 1230,5.01E+11,제주특별자치도 제주시 일주동로,254,,5.01E+24,,제주특별자치도 제주시 일주동로 254,690838,63300,,,,126.5723627,33.51976749
24899183,제이케이에듀케이션,,D,소매,D08,사무/문구/컴퓨터,D08A01,사무/문구용품,G47612,문구용품 소매업,50,제주특별자치도,50110,제주시,5011054000,이도2동,5011010400,이도이동,5.01E+18,1,대지,1034,3,제주특별자치도 제주시 이도이동 1034-3,5.01E+11,제주특별자치도 제주시 중앙로,261,1,5.01E+24,티에스주상복합아파트,제주특별자치도 제주시 중앙로 261-1,690825,63210,,,,126.5323088,33.4969313
24903682,엑스티엠,,R,학문/교육,R05,학원-음악미술무용,R05A02,피아노/바이올린/기타,P85620,예술 학원,50,제주특별자치도,50110,제주시,5011066000,노형동,5011012200,노형동,5.01E+18,1,대지,906,5,제주특별자치도 제주시 노형동 906-5,5.01E+11,제주특별자치도 제주시 도령로,54,,5.01E+24,한신오피스텔,제주특별자치도 제주시 도령로 54,690802,63081,,,,126.4846535,33.48864019
25893045,성화분식,,Q,음식,Q04,분식,Q04A01,라면김밥분식,I56194,분식 및 김밥 전문점,50,제주특별자치도,50110,제주시,5011058000,용담2동,5011010900,용담이동,5.01E+18,1,대지,603,34,제주특별자치도 제주시 용담이동 603-34,5.01E+11,제주특별자치도 제주시 용담로,77,,5.01E+24,,제주특별자치도 제주시 용담로 77,690821,63152,,,,126.5110774,33.51265379
23968988,MYT스쿨보습학원,,R,학문/교육,R01,학원-보습교습입시,R01A01,학원-입시,P85501,일반 교과 학원,50,제주특별자치도,50110,제주시,5011060000,화북동,5011011100,화북일동,5.01E+18,1,대지,1953,13,제주특별자치도 제주시 화북일동 1953-13,5.01E+11,제주특별자치도 제주시 진남로4길,19,,5.01E+24,,제주특별자치도 제주시 진남로4길 19,690839,63291,,2,,126.5641724,33.52166529
15648925,모랑모랑민박,,O,숙박,O05,민박/하숙,O05A01,민박/하숙,,,50,제주특별자치도,50110,제주시,5011025300,애월읍,5011025335,애월읍,5.01E+18,1,대지,1503,,제주특별자치도 제주시 애월읍 납읍리 1503,5.01E+11,제주특별자치도 제주시 애월읍 납읍로2길,35,4,5.01E+24,,제주특별자치도 제주시 애월읍 납읍로2길 35-4,695906,63035,,,,126.3304465,33.43590136
9162575,오래해장국,,Q,음식,Q01,한식,Q01A05,해장국/감자탕,I56111,한식 음식점업,50,제주특별자치도,50110,제주시,5011069000,도두동,5011012700,도두일동,5.01E+18,1,대지,2556,1,제주특별자치도 제주시 도두일동 2556-1,5.01E+11,제주특별자치도 제주시 서해안로,168,1,5.01E+24,,제주특별자치도 제주시 서해안로 168-1,690241,63112,,1,,126.4667354,33.50407091
25019744,중문느영쉼터,,D,소매,D01,음/식료품소매,D01A12,수산물소매,G47213,수산물 소매업,50,제주특별자치도,50130,서귀포시,5013062000,예래동,5013012000,상예동,5.01E+18,1,대지,4642,2,제주특별자치도 서귀포시 상예동 4642-2,5.01E+11,제주특별자치도 서귀포시 존제로15번길,10,13,5.01E+24,,제주특별자치도 서귀포시 존제로15번길 10-13,697301,63534,,,,126.3757402,33.26459196
20497062,억수,,Q,음식,Q01,한식,Q01A01,한식/백반/한정식,I56111,한식 음식점업,50,제주특별자치도,50110,제주시,5011060000,화북동,5011011100,화북일동,5.01E+18,1,대지,1966,14,제주특별자치도 제주시 화북일동 1966-14,5.01E+11,제주특별자치도 제주시 진남로8길,25,,5.01E+24,,제주특별자치도 제주시 진남로8길 25,690839,63289,,1,,126.566851,33.52111029
25861044,유달,,Q,음식,Q02,중식,Q02A00,중국음식/중국집,I56112,중식 음식점업,50,제주특별자치도,50130,서귀포시,5013055000,효돈동,5013010800,하효동,5.01E+18,1,대지,314,,제주특별자치도 서귀포시 하효동 314,5.01E+11,제주특별자치도 서귀포시 일주동로,8106,,5.01E+24,,제주특별자치도 서귀포시 일주동로 8106,697030,63606,,2,,126.6205906,33.26221224
25372463,그랑빌가족호텔,,O,숙박,O02,모텔/여관/여인숙,O02A01,모텔/여관/여인숙,I55112,여관업,50,제주특별자치도,50130,서귀포시,5013062000,예래동,5013011900,색달동,5.01E+18,1,대지,2512,,제주특별자치도 서귀포시 색달동 2512,5.01E+11,제주특별자치도 서귀포시 중문관광로,17,,5.01E+24,그랑빌펜션,제주특별자치도 서귀포시 중문관광로 17,697807,63534,,,,126.415318,33.25637539
20243082,영아네맛집,,Q,음식,Q04,분식,Q04A01,라면김밥분식,I56194,분식 및 김밥 전문점,50,제주특별자치도,50110,제주시,5011025600,구좌읍,5011025628,구좌읍,5.01E+18,1,대지,1419,,제주특별자치도 제주시 구좌읍 세화리 1419,5.01E+11,제주특별자치도 제주시 구좌읍 구좌로,46,,5.01E+24,,제주특별자치도 제주시 구좌읍 구좌로 46,695973,63361,,,,126.8563389,33.5231209
24516694,서귀포꽃직매장,,D,소매,D02,선물/팬시/기념품,D02A02,꽃집/꽃배달,G47851,화초 및 산식물 소매업,50,제주특별자치도,50130,서귀포시,5013057000,동홍동,5013010500,동홍동,5.01E+18,1,대지,1460,11,제주특별자치도 서귀포시 동홍동 1460-11,5.01E+11,제주특별자치도 서귀포시 중앙로,148,,5.01E+24,노랑꽃방,제주특별자치도 서귀포시 중앙로 148,697864,63585,,,,126.5605196,33.25783466
20254187,레이크휴게소,,Q,음식,Q01,한식,Q01A01,한식/백반/한정식,I56111,한식 음식점업,50,제주특별자치도,50110,제주시,5011025300,애월읍,5011025336,애월읍,5.01E+18,1,대지,3914,,제주특별자치도 제주시 애월읍 어음리 3914,5.01E+11,제주특별자치도 제주시 애월읍 평화로,1738,116,5.01E+24,엘리시안컨츄리클럽,제주특별자치도 제주시 애월읍 평화로 1738-116,695914,63041,,,,126.3799682,33.37140239
23770134,제주통큰장어,,Q,음식,Q03,일식/수산물,Q03A07,민물장어전문,I56111,한식 음식점업,50,제주특별자치도,50110,제주시,5011054000,이도2동,5011010400,이도이동,5.01E+18,1,대지,410,,제주특별자치도 제주시 이도이동 410,5.01E+11,제주특별자치도 제주시 청귤로3길,50,,5.01E+24,,제주특별자치도 제주시 청귤로3길 50,690824,63218,,1,,126.5421853,33.50154677
25175006,헤브론농산물,,D,소매,D01,음/식료품소매,D01A13,청과물소매,G47214,과실 및 채소 소매업,50,제주특별자치도,50130,서귀포시,5013059000,대륜동,5013010400,호근동,5.01E+18,1,대지,479,3,제주특별자치도 서귀포시 호근동 479-3,5.01E+11,제주특별자치도 서귀포시 태평로,119,,5.01E+24,태양농원,제주특별자치도 서귀포시 태평로 119,697862,63571,,,,126.5356005,33.24435314
24970621,재원전기조명,,D,소매,D07,가정/주방/인테리어,D07A10,조명기구/전기용품,G47591,전기용품 및 조명장치 소매업,50,제주특별자치도,50110,제주시,5011058000,용담2동,5011010900,용담이동,5.01E+18,1,대지,616,116,제주특별자치도 제주시 용담이동 616-116,5.01E+11,제주특별자치도 제주시 성화로6길,40,,5.01E+24,,제주특별자치도 제주시 성화로6길 40,690821,63156,,,,126.509619,33.51108555
20510136,더클래식골프앤리조트,,Q,음식,Q06,양식,Q06A01,정통양식/경양식,I56114,서양식 음식점업,50,제주특별자치도,50130,서귀포시,5013025300,남원읍,5013025324,남원읍,5.01E+18,2,산,191,,제주특별자치도 서귀포시 남원읍 수망리 산191,5.01E+11,제주특별자치도 서귀포시 남원읍 남조로,1105,,5.01E+24,더클래식골프리조트,제주특별자치도 서귀포시 남원읍 남조로 1105,699949,63615,,1,,126.6799267,33.37065426
20235389,감초건강원,,D,소매,D10,건강/미용식품,D10A07,건강원,G47216,건강보조식품 소매업,50,제주특별자치도,50130,서귀포시,5013061000,중문동,5013011200,중문동,5.01E+18,1,대지,2094,,제주특별자치도 서귀포시 중문동 2094,5.01E+11,제주특별자치도 서귀포시 중문로,10,5,5.01E+24,감초건강원,제주특별자치도 서귀포시 중문로 10-5,697857,63545,,,,126.4238525,33.25260704
24396209,하우투잉글리시대성제넥스어학보,,R,학문/교육,R01,학원-보습교습입시,R01A01,학원-입시,P85501,일반 교과 학원,50,제주특별자치도,50110,제주시,5011060000,화북동,5011011100,화북일동,5.01E+18,1,대지,1966,9,제주특별자치도 제주시 화북일동 1966-9,5.01E+11,제주특별자치도 제주시 진동로5길,30,,5.01E+24,,제주특별자치도 제주시 진동로5길 30,690839,63289,,2,,126.5661793,33.52137299
21439451,파티엔서승희한복,,F,생활서비스,F07,물품기기대여,F07A07,의류/한복대여,L69292,의류 임대업,50,제주특별자치도,50110,제주시,5011054000,이도2동,5011012900,도남동,5.01E+18,1,대지,81,15,제주특별자치도 제주시 도남동 81-15,5.01E+11,제주특별자치도 제주시 연삼로,349,,5.01E+24,한경빌딩,제주특별자치도 제주시 연삼로 349,690807,63205,,,,126.5297566,33.4925825
24181049,잉글리쉬무무,,R,학문/교육,R04,학원-어학,R04A01,학원-외국어/어학,P85502,외국어학원,50,제주특별자치도,50110,제주시,5011060000,화북동,5011011100,화북일동,5.01E+18,1,대지,13,2,제주특별자치도 제주시 화북일동 13-2,5.01E+11,제주특별자치도 제주시 동화로1길,45,2,5.01E+24,,제주특별자치도 제주시 동화로1길 45-2,690837,63302,,,,126.5768314,33.51834934
22977256,하와이목욕탕구내,,F,생활서비스,F01,이/미용/건강,F01A04,남성미용실,S96111,이용업,50,제주특별자치도,50110,제주시,5011058000,용담2동,5011010900,용담이동,5.01E+18,1,대지,1816,,제주특별자치도 제주시 용담이동 1816,5.01E+11,제주특별자치도 제주시 도령로,173,,5.01E+24,,제주특별자치도 제주시 도령로 173,690822,63116,,,,126.4936917,33.49609817
21499117,정금사,,D,소매,D26,시계/귀금속소매,D26A03,금은방,G47830,시계 및 귀금속 소매업,50,제주특별자치도,50110,제주시,5011051000,일도1동,5011010100,일도일동,5.01E+18,1,대지,1302,2,제주특별자치도 제주시 일도일동 1302-2,5.01E+11,제주특별자치도 제주시 칠성로길,31,1,5.01E+24,,제주특별자치도 제주시 칠성로길 31-1,690836,63277,,,,126.5262637,33.5145574
15496239,개성연출옷수선,,F,생활서비스,F03,개인/가정용품수리,F03A08,옷수선,S95391,"신발, 의복 및 기타 가정용 직물제품 수리업",50,제주특별자치도,50110,제주시,5011051000,일도1동,5011010100,일도일동,5.01E+18,1,대지,1325,1,제주특별자치도 제주시 일도일동 1325-1,5.01E+11,제주특별자치도 제주시 관덕로15길,10,,5.01E+24,,제주특별자치도 제주시 관덕로15길 10,690836,63277,,,,126.5269184,33.51403327
24893984,준커튼홈패션,,D,소매,D07,가정/주방/인테리어,D07A14,지물판매,G47513,벽지 및 장판류 소매업,50,제주특별자치도,50110,제주시,5011058000,용담2동,5011011000,용담삼동,5.01E+18,1,대지,586,45,제주특별자치도 제주시 용담삼동 586-45,5.01E+11,제주특별자치도 제주시 용담로1길,1,5,5.01E+24,,제주특별자치도 제주시 용담로1길 1-5,690043,63151,,,,126.5065089,33.51357248
22518002,GS25,서귀효돈점,D,소매,D03,종합소매점,D03A01,편의점,G47122,체인화 편의점,50,제주특별자치도,50130,서귀포시,5013055000,효돈동,5013010900,신효동,5.01E+18,1,대지,841,4,제주특별자치도 서귀포시 신효동 841-4,5.01E+11,제주특별자치도 서귀포시 효돈로,144,,5.01E+24,앞동산식당,제주특별자치도 서귀포시 효돈로 144,697856,63606,,,,126.6142348,33.26371939
25479506,늘푸른,,D,소매,D01,음/식료품소매,D01A13,청과물소매,G47214,과실 및 채소 소매업,50,제주특별자치도,50110,제주시,5011063000,아라동,5011013600,영평동,5.01E+18,1,대지,944,6,제주특별자치도 제주시 영평동 944-6,5.01E+11,제주특별자치도 제주시 영평길,151,,5.01E+24,,제주특별자치도 제주시 영평길 151,690140,63308,,,,126.573495,33.48749496
24896737,알카리이온수기이오니아,,D,소매,D20,의약/의료품소매,D20A01,의료용품소매,G47811,의약품 및 의료용품 소매업,50,제주특별자치도,50110,제주시,5011065000,연동,5011013700,연동,5.01E+18,1,대지,272,33,제주특별자치도 제주시 연동 272-33,5.01E+11,제주특별자치도 제주시 신대로12길,51,,5.01E+24,로얄쇼핑센타및오피스텔,제주특별자치도 제주시 신대로12길 51,690720,63124,,6,,126.4911646,33.48855736
26640149,경기농산,,D,소매,D01,음/식료품소매,D01A13,청과물소매,G47214,과실 및 채소 소매업,50,제주특별자치도,50110,제주시,5011064000,오라동,5011012100,오라삼동,5.01E+18,1,대지,2111,,제주특별자치도 제주시 오라삼동 2111,5.01E+11,제주특별자치도 제주시 연삼로,128,3,5.01E+24,,제주특별자치도 제주시 연삼로 128-3,690163,63145,,,,126.5064089,33.49245652
20264608,BHC치킨,치킨노형뜨란채점,Q,음식,Q05,닭/오리요리,Q05A08,후라이드/양념치킨,I56193,치킨 전문점,50,제주특별자치도,50110,제주시,5011066000,노형동,5011012200,노형동,5.01E+18,1,대지,2613,1,제주특별자치도 제주시 노형동 2613-1,5.01E+11,제주특별자치도 제주시 정존11길,31,,5.01E+24,,제주특별자치도 제주시 정존11길 31,690805,63102,,1,,126.4747341,33.48612031
23903573,파도낚시레포츠,,D,소매,D14,운동/경기용품소매,D14A01,운동/경기용품,G47631,운동 및 경기용품 소매업,50,제주특별자치도,50130,서귀포시,5013025000,대정읍,5013025022,대정읍,5.01E+18,1,대지,856,9,제주특별자치도 서귀포시 대정읍 하모리 856-9,5.01E+11,제주특별자치도 서귀포시 대정읍 신영로,127,,5.01E+24,,제주특별자치도 서귀포시 대정읍 신영로 127,699937,63508,,,,126.2547222,33.22331033
24311400,한철민영어교습소,,R,학문/교육,R04,학원-어학,R04A01,학원-외국어/어학,P85502,외국어학원,50,제주특별자치도,50130,서귀포시,5013025000,대정읍,5013025022,대정읍,5.01E+18,1,대지,902,1,제주특별자치도 서귀포시 대정읍 하모리 902-1,5.01E+11,제주특별자치도 서귀포시 대정읍 하모중앙로,63,,5.01E+24,현민갈비,제주특별자치도 서귀포시 대정읍 하모중앙로 63,699937,63508,,4,,126.252398,33.22259251
23689338,제주에서놀멍쉬멍살아보자제놀쉬,,Q,음식,Q01,한식,Q01A01,한식/백반/한정식,I56111,한식 음식점업,50,제주특별자치도,50110,제주시,5011068000,이호동,5011012500,이호일동,5.01E+18,1,대지,1700,6,제주특별자치도 제주시 이호일동 1700-6,5.01E+11,제주특별자치도 제주시 테우해안로,164,,5.01E+24,,제주특별자치도 제주시 테우해안로 164,690231,63111,,,,126.451456,33.49670443
22592645,제이에스골프아카데미클리닉,,P,스포츠,P02,실내운동시설,P02A10,실내골프연습장,R91136,골프연습장 운영업,50,제주특별자치도,50110,제주시,5011065000,연동,5011013700,연동,5.01E+18,1,대지,1456,,제주특별자치도 제주시 연동 1456,5.01E+11,제주특별자치도 제주시 국기로,6,,5.01E+24,덕용빌딩,제주특별자치도 제주시 국기로 6,690817,63138,,4,,126.4896877,33.48128174
23064344,제주일등공인중개사,,L,부동산,L01,부동산중개,L01A01,부동산중개,L68221,부동산 자문 및 중개업,50,제주특별자치도,50110,제주시,5011065000,연동,5011013700,연동,5.01E+18,1,대지,1522,2,제주특별자치도 제주시 연동 1522-2,5.01E+11,제주특별자치도 제주시 국기로,48,,5.01E+24,,제주특별자치도 제주시 국기로 48,690817,63140,,,,126.4909816,33.47801578
20273964,낙지마당,,Q,음식,Q03,일식/수산물,Q03A13,낙지/오징어,I56111,한식 음식점업,50,제주특별자치도,50130,서귀포시,5013059000,대륜동,5013010300,서호동,5.01E+18,1,대지,1462,2,제주특별자치도 서귀포시 서호동 1462-2,5.01E+11,제주특별자치도 서귀포시 신중로,73,,5.01E+24,,제주특별자치도 서귀포시 신중로 73,697847,63565,,,,126.5131553,33.25440118
24087843,아이꿈터,제주점,D,소매,D05,의복의류,D05A05,아동복판매,G47416,셔츠 및 기타 의복 소매업,50,제주특별자치도,50110,제주시,5011052000,일도2동,5011010200,일도이동,5.01E+18,1,대지,109,13,제주특별자치도 제주시 일도이동 109-13,5.01E+11,제주특별자치도 제주시 연신로,25,,5.01E+24,,제주특별자치도 제주시 연신로 25,690831,63261,,,,126.5455248,33.49876409
21522702,앗싸노래연습장,,N,관광/여가/오락,N02,무도/유흥/가무,N02A01,노래방,R91223,노래연습장 운영업,50,제주특별자치도,50110,제주시,5011065000,연동,5011013700,연동,5.01E+18,1,대지,273,7,제주특별자치도 제주시 연동 273-7,5.01E+11,제주특별자치도 제주시 신광로,53,,5.01E+24,,제주특별자치도 제주시 신광로 53,690814,63123,,,,126.4903144,33.48732989
26668101,광택전문점,,F,생활서비스,F14,자동차/이륜차,F14A05,광택전문,S95213,자동차 세차업,50,제주특별자치도,50130,서귀포시,5013058000,서홍동,5013010600,서홍동,5.01E+18,1,대지,391,4,제주특별자치도 서귀포시 서홍동 391-4,5.01E+11,제주특별자치도 서귀포시 홍중동로5번길,6,,5.01E+24,,제주특별자치도 서귀포시 홍중동로5번길 6,697851,63584,,,,126.5593222,33.25690115
21651470,동홍주유소,,F,생활서비스,F16,주유소/충전소,F16A01,주유소,G47711,차량용 주유소 운영업,50,제주특별자치도,50130,서귀포시,5013057000,동홍동,5013010500,동홍동,5.01E+18,1,대지,117,4,제주특별자치도 서귀포시 동홍동 117-4,5.01E+11,제주특별자치도 서귀포시 일주동로,8586,,5.01E+24,동홍주유소,제주특별자치도 서귀포시 일주동로 8586,697834,63588,,,,126.5711039,33.25500847
24956071,서완,,D,소매,D07,가정/주방/인테리어,D07A15,유리/페인트/철물건축자재,G47519,"페인트, 유리 및 기타 건설자재 소매업",50,제주특별자치도,50130,서귀포시,5013056000,영천동,5013010700,상효동,5.01E+18,1,대지,668,,제주특별자치도 서귀포시 상효동 668,5.01E+11,제주특별자치도 서귀포시 상효로136번길,5,14,5.01E+24,,제주특별자치도 서귀포시 상효로136번길 5-14,697050,63602,,,,126.5986473,33.27271412
21440535,지엠대우노형바로코너,,F,생활서비스,F14,자동차/이륜차,F14A01,자동차정비/카센타,,,50,제주특별자치도,50110,제주시,5011066000,노형동,5011012200,노형동,5.01E+18,1,대지,2370,,제주특별자치도 제주시 노형동 2370,5.01E+11,제주특별자치도 제주시 노형로,289,,5.01E+24,,제주특별자치도 제주시 노형로 289,690840,63105,,,,126.4687472,33.47905032
20243439,동수식당,,Q,음식,Q01,한식,Q01A01,한식/백반/한정식,I56111,한식 음식점업,50,제주특별자치도,50130,서귀포시,5013025000,대정읍,5013025025,대정읍,5.01E+18,1,대지,1294,,제주특별자치도 서귀포시 대정읍 일과리 1294,5.01E+11,제주특별자치도 서귀포시 대정읍 일과대수로27번길,16,2,5.01E+24,,제주특별자치도 서귀포시 대정읍 일과대수로27번길 16-2,699932,63504,,,,126.2297879,33.23902372
3124049,백통신원리조트휴양콘도미니엄,,Q,음식,Q01,한식,Q01A01,한식/백반/한정식,I56111,한식 음식점업,50,제주특별자치도,50130,서귀포시,5013025300,남원읍,5013025327,남원읍,5.01E+18,1,대지,4626,,제주특별자치도 서귀포시 남원읍 위미리 4626,5.01E+11,제주특별자치도 서귀포시 남원읍 서성로,459,1,5.01E+24,스프링데일콘도미니엄2,제주특별자치도 서귀포시 남원읍 서성로 459-1,699944,63609,,,,126.6396179,33.33005228
15517854,그곳에가면민박,,O,숙박,O05,민박/하숙,O05A01,민박/하숙,,,50,제주특별자치도,50110,제주시,5011025300,애월읍,5011025321,애월읍,5.01E+18,1,대지,3751,3,제주특별자치도 제주시 애월읍 광령리 3751-3,5.01E+11,제주특별자치도 제주시 애월읍 광령북1길,43,,5.01E+24,,제주특별자치도 제주시 애월읍 광령북1길 43,695900,63060,,,,126.4220607,33.46925072
23028489,클럽유투,,Q,음식,Q09,유흥주점,Q09A08,빠/카페/스탠드빠,I56211,일반유흥 주점업,50,제주특별자치도,50110,제주시,5011054000,이도2동,5011010400,이도이동,5.01E+18,1,대지,1186,2,제주특별자치도 제주시 이도이동 1186-2,5.01E+11,제주특별자치도 제주시 신성로13길,28,,5.01E+24,,제주특별자치도 제주시 신성로13길 28,690827,63207,,,,126.5301736,33.49783461
15530553,다이브스테이,,O,숙박,O05,민박/하숙,O05A01,민박/하숙,,,50,제주특별자치도,50130,서귀포시,5013055000,효돈동,5013010800,하효동,5.01E+18,1,대지,1076,2,제주특별자치도 서귀포시 하효동 1076-2,5.01E+11,제주특별자치도 서귀포시 하효중앙로,35,,5.01E+24,,제주특별자치도 서귀포시 하효중앙로 35,697030,63600,,,,126.619791,33.25368305
20492130,돈물,,Q,음식,Q01,한식,Q01A01,한식/백반/한정식,I56111,한식 음식점업,50,제주특별자치도,50110,제주시,5011059000,건입동,5011010700,건입동,5.01E+18,1,대지,1090,1,제주특별자치도 제주시 건입동 1090-1,5.01E+11,제주특별자치도 제주시 연무정동길,2,,5.01E+24,,제주특별자치도 제주시 연무정동길 2,690801,63282,,1,,126.5354754,33.51400852
7529817,마트이십일,,D,소매,D01,음/식료품소매,D01A06,육류소매,G47212,육류 소매업,50,제주특별자치도,50110,제주시,5011056000,삼도2동,5011010600,삼도이동,5.01E+18,1,대지,106,2,제주특별자치도 제주시 삼도이동 106-2,5.01E+11,제주특별자치도 제주시 관덕로8길,10,,5.01E+24,,제주특별자치도 제주시 관덕로8길 10,690809,63168,,,,126.523481,33.51236951
24595415,제이골드,,D,소매,D26,시계/귀금속소매,D26A01,시계/귀금속,G47830,시계 및 귀금속 소매업,50,제주특별자치도,50110,제주시,5011066000,노형동,5011012200,노형동,5.01E+18,1,대지,682,,제주특별자치도 제주시 노형동 682,5.01E+11,제주특별자치도 제주시 진군남4길,7,1,5.01E+24,천마에코피아,제주특별자치도 제주시 진군남4길 7-1,690802,63092,B,,,126.480913,33.47608964
25338589,다희연포르테,,Q,음식,Q01,한식,Q01A01,한식/백반/한정식,I56111,한식 음식점업,50,제주특별자치도,50110,제주시,5011066000,노형동,5011012200,노형동,5.01E+18,1,대지,931,,제주특별자치도 제주시 노형동 931,5.01E+11,제주특별자치도 제주시 원노형6길,7,,5.01E+24,,제주특별자치도 제주시 원노형6길 7,690802,63082,,,,126.4830862,33.48534832
24057238,세븐일레즌제주그랜드호,,D,소매,D03,종합소매점,D03A01,편의점,G47122,체인화 편의점,50,제주특별자치도,50110,제주시,5011065000,연동,5011013700,연동,5.01E+18,1,대지,253,13,제주특별자치도 제주시 연동 253-13,5.01E+11,제주특별자치도 제주시 연동4길,8,,5.01E+24,,제주특별자치도 제주시 연동4길 8,690813,63132,,,,126.4875758,33.4851778
23409702,명신부동산컨설팅전문,,L,부동산,L01,부동산중개,L01A01,부동산중개,L68221,부동산 자문 및 중개업,50,제주특별자치도,50110,제주시,5011054000,이도2동,5011012900,도남동,5.01E+18,1,대지,902,36,제주특별자치도 제주시 도남동 902-36,5.01E+11,제주특별자치도 제주시 신성로,23,,5.01E+24,,제주특별자치도 제주시 신성로 23,690806,63201,,,,126.5222772,33.49644241
24082278,토탈광고&열쇠,,D,소매,D07,가정/주방/인테리어,D07A15,유리/페인트/철물건축자재,G47519,"페인트, 유리 및 기타 건설자재 소매업",50,제주특별자치도,50110,제주시,5011025300,애월읍,5011025334,애월읍,5.01E+18,1,대지,1719,3,제주특별자치도 제주시 애월읍 애월리 1719-3,5.01E+11,제주특별자치도 제주시 애월읍 애월로,125,1,5.01E+24,,제주특별자치도 제주시 애월읍 애월로 125-1,695913,63043,,,,126.3208635,33.46446813
20274733,필,,Q,음식,Q09,유흥주점,Q09A01,호프/맥주,I56219,기타 주점업,50,제주특별자치도,50130,서귀포시,5013025000,대정읍,5013025022,대정읍,5.01E+18,1,대지,919,4,제주특별자치도 서귀포시 대정읍 하모리 919-4,5.01E+11,제주특별자치도 서귀포시 대정읍 하모상가로,40,2,5.01E+24,,제주특별자치도 서귀포시 대정읍 하모상가로 40-2,699935,63508,,,,126.2532892,33.22146906
23760221,정현개발,,L,부동산,L03,분양,L03A01,주택공급,L68121,주거용 건물 개발 및 공급업,50,제주특별자치도,50110,제주시,5011066000,노형동,5011012200,노형동,5.01E+18,1,대지,2581,3,제주특별자치도 제주시 노형동 2581-3,5.01E+11,제주특별자치도 제주시 월랑로,39,,5.01E+24,동마빌딩,제주특별자치도 제주시 월랑로 39,690841,63100,,7,,126.4756747,33.48893576
15526792,대춘해장국,,Q,음식,Q01,한식,Q01A05,해장국/감자탕,I56111,한식 음식점업,50,제주특별자치도,50110,제주시,5011054000,이도2동,5011012900,도남동,5.01E+18,1,대지,380,2,제주특별자치도 제주시 도남동 380-2,5.01E+11,제주특별자치도 제주시 연북로,398,,5.01E+24,영성빌라,제주특별자치도 제주시 연북로 398,690824,63235,,1,,126.5239381,33.48036911
15280524,CU,제주함덕사거리점,D,소매,D03,종합소매점,D03A01,편의점,G47122,체인화 편의점,50,제주특별자치도,50110,제주시,5011025900,조천읍,5011025924,조천읍,5.01E+18,1,대지,4157,4,제주특별자치도 제주시 조천읍 함덕리 4157-4,5.01E+11,제주특별자치도 제주시 조천읍 함와로,23,,5.01E+24,,제주특별자치도 제주시 조천읍 함와로 23,695965,63333,,,,126.6748572,33.53807278
21568565,나경플라워,,D,소매,D02,선물/팬시/기념품,D02A02,꽃집/꽃배달,G47851,화초 및 산식물 소매업,50,제주특별자치도,50110,제주시,5011055000,삼도1동,5011010500,삼도일동,5.01E+18,1,대지,576,18,제주특별자치도 제주시 삼도일동 576-18,5.01E+11,제주특별자치도 제주시 서사로23길,23,1,5.01E+24,,제주특별자치도 제주시 서사로23길 23-1,690846,63186,,,,126.5221539,33.49800066
20610337,동승호,,Q,음식,Q03,일식/수산물,Q03A01,횟집,I56111,한식 음식점업,50,제주특별자치도,50110,제주시,5011054000,이도2동,5011012900,도남동,5.01E+18,1,대지,922,13,제주특별자치도 제주시 도남동 922-13,5.01E+11,제주특별자치도 제주시 신성로7길,16,,5.01E+24,,제주특별자치도 제주시 신성로7길 16,690806,63200,,,,126.528301,33.49657722
28523160,신엄1980,,O,숙박,O03,캠프/별장/펜션,O03A01,캠프/별장/펜션,I55119,기타 관광숙박시설 운영업,50,제주특별자치도,50110,제주시,5011025300,애월읍,5011025326,애월읍,5.01E+18,1,대지,2552,1,제주특별자치도 제주시 애월읍 신엄리 2552-1,5.01E+11,제주특별자치도 제주시 애월읍 신엄안3길,21,,5.01E+24,,제주특별자치도 제주시 애월읍 신엄안3길 21,695912,63047,,,,126.3647739,33.47407973
20237360,커피마마,제주연동점,Q,음식,Q12,커피점/카페,Q12A01,커피전문점/카페/다방,I56220,비알콜 음료점업,50,제주특별자치도,50110,제주시,5011065000,연동,5011013700,연동,5.01E+18,1,대지,272,50,제주특별자치도 제주시 연동 272-50,5.01E+11,제주특별자치도 제주시 연동7길,8,,5.01E+24,,제주특별자치도 제주시 연동7길 8,690814,63124,,1,,126.4906909,33.4891917
20862246,홍익제주호텔,,Q,음식,Q01,한식,Q01A01,한식/백반/한정식,I56111,한식 음식점업,50,제주특별자치도,50110,제주시,5011025000,한림읍,5011025031,한림읍,5.01E+18,1,대지,1165,,제주특별자치도 제주시 한림읍 협재리 1165,5.01E+11,제주특별자치도 제주시 한림읍 일주서로,5125,,5.01E+24,,제주특별자치도 제주시 한림읍 일주서로 5125,695934,63011,,,,126.2534798,33.39175672
20814593,샤이니테라피,,F,생활서비스,F01,이/미용/건강,F01A03,비만/피부관리,,,50,제주특별자치도,50110,제주시,5011065000,연동,5011013700,연동,5.01E+18,1,대지,282,21,제주특별자치도 제주시 연동 282-21,5.01E+11,제주특별자치도 제주시 신대로12길,41,,5.01E+24,,제주특별자치도 제주시 신대로12길 41,690814,63124,,2,,126.4922285,33.48863342
25216725,세븐일레븐,제주한림항호텔점,D,소매,D03,종합소매점,D03A01,편의점,G47122,체인화 편의점,50,제주특별자치도,50110,제주시,5011025000,한림읍,5011025024,한림읍,5.01E+18,1,대지,1405,6,제주특별자치도 제주시 한림읍 한림리 1405-6,5.01E+11,제주특별자치도 제주시 한림읍 한림로,656,,5.01E+24,,제주특별자치도 제주시 한림읍 한림로 656,695932,63032,,,,126.2633323,33.41404585
23448824,제라진,,Q,음식,Q01,한식,Q01A01,한식/백반/한정식,I56111,한식 음식점업,50,제주특별자치도,50130,서귀포시,5013061000,중문동,5013011200,중문동,5.01E+18,1,대지,1918,4,제주특별자치도 서귀포시 중문동 1918-4,5.01E+11,제주특별자치도 서귀포시 1100로,6,,5.01E+24,,제주특별자치도 서귀포시 1100로 6,697857,63540,,,,126.4319643,33.25143835
20305365,애월농협봉성지점하나로마트,,D,소매,D03,종합소매점,D03A02,수퍼마켓,G47121,슈퍼마켓,50,제주특별자치도,50110,제주시,5011025300,애월읍,5011025339,애월읍,5.01E+18,1,대지,3821,5,제주특별자치도 제주시 애월읍 봉성리 3821-5,5.01E+11,제주특별자치도 제주시 애월읍 봉성로,71,,5.01E+24,,제주특별자치도 제주시 애월읍 봉성로 71,695907,63039,,,,126.312363,33.41908614
23236711,물항과허벅,,Q,음식,Q01,한식,Q01A01,한식/백반/한정식,I56111,한식 음식점업,50,제주특별자치도,50110,제주시,5011065000,연동,5011013700,연동,5.01E+18,1,대지,251,8,제주특별자치도 제주시 연동 251-8,5.01E+11,제주특별자치도 제주시 제원1길,23,,5.01E+24,뉴제원,제주특별자치도 제주시 제원1길 23,690813,63129,,,,126.486891,33.48928961
24869210,감귤농원,,D,소매,D02,선물/팬시/기념품,D02A02,꽃집/꽃배달,G47851,화초 및 산식물 소매업,50,제주특별자치도,50110,제주시,5011051000,일도1동,5011010100,일도일동,5.01E+18,1,대지,1479,2,제주특별자치도 제주시 일도일동 1479-2,5.01E+11,제주특별자치도 제주시 관덕로14길,1,,5.01E+24,,제주특별자치도 제주시 관덕로14길 1,690836,63264,,,,126.5267787,33.51275137
21484891,꽃사랑화원,,D,소매,D02,선물/팬시/기념품,D02A02,꽃집/꽃배달,G47851,화초 및 산식물 소매업,50,제주특별자치도,50110,제주시,5011066000,노형동,5011012200,노형동,5.01E+18,1,대지,1561,3,제주특별자치도 제주시 노형동 1561-3,5.01E+11,제주특별자치도 제주시 한라대학로,82,,5.01E+24,미래파크빌,제주특별자치도 제주시 한라대학로 82,690804,63092,,,,126.478997,33.47614728
24095219,세화축산.수산물판매장,,D,소매,D01,음/식료품소매,D01A12,수산물소매,G47213,수산물 소매업,50,제주특별자치도,50110,제주시,5011066000,노형동,5011012200,노형동,5.01E+18,1,대지,938,,제주특별자치도 제주시 노형동 938,5.01E+11,제주특별자치도 제주시 원노형로,46,,5.01E+24,,제주특별자치도 제주시 원노형로 46,690802,63082,,,,126.484704,33.48450261
20832129,명성키즈태권도장,,R,학문/교육,R07,학원-예능취미체육,R07A20,태권도장,P85611,스포츠 교육기관,50,제주특별자치도,50110,제주시,5011066000,노형동,5011012200,노형동,5.01E+18,1,대지,1054,3,제주특별자치도 제주시 노형동 1054-3,5.01E+11,제주특별자치도 제주시 월랑로10길,2,,5.01E+24,,제주특별자치도 제주시 월랑로10길 2,690803,63097,,,,126.4766308,33.48901964
20503945,제주시청직장어린이집24,,R,학문/교육,R08,유아교육,R08A02,어린이집,Q87210,보육시설 운영업,50,제주특별자치도,50110,제주시,5011054000,이도2동,5011010400,이도이동,5.01E+18,1,대지,1176,1,제주특별자치도 제주시 이도이동 1176-1,5.01E+11,제주특별자치도 제주시 광양9길,10,,5.01E+24,제주시청,제주특별자치도 제주시 광양9길 10,690701,63208,,1,,126.5322751,33.50020362
22778009,광스쿡스,,Q,음식,Q06,양식,Q06A01,정통양식/경양식,I56114,서양식 음식점업,50,제주특별자치도,50110,제주시,5011025600,구좌읍,5011025628,구좌읍,5.01E+18,1,대지,1477,10,제주특별자치도 제주시 구좌읍 세화리 1477-10,5.01E+11,제주특별자치도 제주시 구좌읍 세화7길,23,6,5.01E+24,,제주특별자치도 제주시 구좌읍 세화7길 23-6,695973,63361,,,,126.8607185,33.52407189
20759716,세일옷수선,,F,생활서비스,F03,개인/가정용품수리,F03A08,옷수선,S95391,"신발, 의복 및 기타 가정용 직물제품 수리업",50,제주특별자치도,50110,제주시,5011054000,이도2동,5011012900,도남동,5.01E+18,1,대지,901,17,제주특별자치도 제주시 도남동 901-17,5.01E+11,제주특별자치도 제주시 서광로20길,36,,5.01E+24,,제주특별자치도 제주시 서광로20길 36,690806,63201,,,,126.5217907,33.49657185
21658619,선우도장건설,,F,생활서비스,F15,주택수리,F15A02,미장타일도배도장,,,50,제주특별자치도,50110,제주시,5011025300,애월읍,5011025324,애월읍,5.01E+18,1,대지,980,,제주특별자치도 제주시 애월읍 구엄리 980,5.01E+11,제주특별자치도 제주시 애월읍 엄수로,61,,5.01E+24,,제주특별자치도 제주시 애월읍 엄수로 61,695905,63049,,,,126.3808218,33.47017935
25019807,재연농장,,D,소매,D01,음/식료품소매,D01A13,청과물소매,G47214,과실 및 채소 소매업,50,제주특별자치도,50130,서귀포시,5013032000,표선면,5013032022,표선면,5.01E+18,1,대지,329,4,제주특별자치도 서귀포시 표선면 하천리 329-4,5.01E+11,제주특별자치도 서귀포시 표선면 하천달산로,12,,5.01E+24,,제주특별자치도 서귀포시 표선면 하천달산로 12,699914,63627,,,,126.8448331,33.34200333
20491539,현원,,D,소매,D10,건강/미용식품,D10A04,건강식품판매,G47216,건강보조식품 소매업,50,제주특별자치도,50110,제주시,5011053000,이도1동,5011010300,이도일동,5.01E+18,1,대지,1695,9,제주특별자치도 제주시 이도일동 1695-9,5.01E+11,제주특별자치도 제주시 오현길,21,,5.01E+24,삼성1차미화아파트,제주특별자치도 제주시 오현길 21,690829,63194,나,,,126.5270123,33.5072185
20779834,베리타스수학,,R,학문/교육,R01,학원-보습교습입시,R01A01,학원-입시,P85501,일반 교과 학원,50,제주특별자치도,50110,제주시,5011052000,일도2동,5011010200,일도이동,5.01E+18,1,대지,367,6,제주특별자치도 제주시 일도이동 367-6,5.01E+11,제주특별자치도 제주시 동광로,114,,5.01E+24,MK빌딩,제주특별자치도 제주시 동광로 114,690833,63275,,3,,126.5395435,33.50633908
28510118,올레프로방스펜션,,O,숙박,O05,민박/하숙,O05A01,민박/하숙,,,50,제주특별자치도,50110,제주시,5011025300,애월읍,5011025321,애월읍,5.01E+18,1,대지,2807,27,제주특별자치도 제주시 애월읍 광령리 2807-27,5.01E+11,제주특별자치도 제주시 애월읍 광령평화2길,170,13,5.01E+24,광령J주택,제주특별자치도 제주시 애월읍 광령평화2길 170-13,695900,63064,,1,,126.4342549,33.43000699
15534416,단지축산,,D,소매,D01,음/식료품소매,D01A03,정육점,G47212,육류 소매업,50,제주특별자치도,50110,제주시,5011025300,애월읍,5011025342,애월읍,5.01E+18,1,대지,1560,,제주특별자치도 제주시 애월읍 유수암리 1560,5.01E+11,제주특별자치도 제주시 애월읍 유수암로,175,1,5.01E+24,,제주특별자치도 제주시 애월읍 유수암로 175-1,695916,63067,,,,126.4021999,33.42953503
22747156,팡,,Q,음식,Q12,커피점/카페,Q12A01,커피전문점/카페/다방,I56220,비알콜 음료점업,50,제주특별자치도,50110,제주시,5011061000,삼양동,5011011400,삼양이동,5.01E+18,1,대지,2118,13,제주특별자치도 제주시 삼양이동 2118-13,5.01E+11,제주특별자치도 제주시 지석11길,23,,5.01E+24,,제주특별자치도 제주시 지석11길 23,690072,63319,,1,,126.5839759,33.52312846
28514001,구름비낭펜션,,O,숙박,O03,캠프/별장/펜션,O03A01,캠프/별장/펜션,I55119,기타 관광숙박시설 운영업,50,제주특별자치도,50110,제주시,5011031000,한경면,5011031024,한경면,5.01E+18,1,대지,2606,1,제주특별자치도 제주시 한경면 판포리 2606-1,5.01E+11,제주특별자치도 제주시 한경면 판포중2길,15,,5.01E+24,,제주특별자치도 제주시 한경면 판포중2길 15,695943,63003,,,,126.2017187,33.3579311
22968665,브이아이피,,F,생활서비스,F02,세탁/가사서비스,F02A01,세탁소/빨래방,S96912,가정용 세탁업,50,제주특별자치도,50110,제주시,5011065000,연동,5011013700,연동,5.01E+18,1,대지,304,25,제주특별자치도 제주시 연동 304-25,5.01E+11,제주특별자치도 제주시 비월길,14,,5.01E+24,미화연립주택,제주특별자치도 제주시 비월길 14,690814,63134,,1,,126.4970148,33.48438206
27512568,파크랜드제주동문,제주동문점,D,소매,D05,의복의류,D05A09,남성의류전문점,,,50,제주특별자치도,50110,제주시,5011052000,일도2동,5011010200,일도이동,5.01E+18,1,대지,360,7,제주특별자치도 제주시 일도이동 360-7,5.01E+11,제주특별자치도 제주시 신산로15길,28,,5.01E+24,인화대유맨션,제주특별자치도 제주시 신산로15길 28,690833,63273,,,,126.5382299,33.50637768
15545109,남동,,D,소매,D01,음/식료품소매,D01A13,청과물소매,G47214,과실 및 채소 소매업,50,제주특별자치도,50130,서귀포시,5013025300,남원읍,5013025326,남원읍,5.01E+18,1,대지,1589,15,제주특별자치도 서귀포시 남원읍 신흥리 1589-15,5.01E+11,제주특별자치도 서귀포시 남원읍 신흥로250번길,27,,5.01E+24,,제주특별자치도 서귀포시 남원읍 신흥로250번길 27,699947,63616,,,,126.7484074,33.31818563
15542946,법인해담원,,R,학문/교육,R08,유아교육,R08A04,실내놀이터-유아,Q87210,보육시설 운영업,50,제주특별자치도,50110,제주시,5011054000,이도2동,5011012900,도남동,5.01E+18,1,대지,918,9,제주특별자치도 제주시 도남동 918-9,5.01E+11,제주특별자치도 제주시 도남로5길,6,,5.01E+24,,제주특별자치도 제주시 도남로5길 6,690806,63200,,2,,126.5270778,33.49700446
27646031,홍림미용실,,F,생활서비스,F01,이/미용/건강,F01A01,여성미용실,S96112,두발미용업,50,제주특별자치도,50110,제주시,5011053000,이도1동,5011010300,이도일동,5.01E+18,1,대지,1430,2,제주특별자치도 제주시 이도일동 1430-2,5.01E+11,제주특별자치도 제주시 오현길,78,8,5.01E+24,,제주특별자치도 제주시 오현길 78-8,690829,63192,,,,126.5258798,33.51181206
21481149,리스트링,,D,소매,D03,종합소매점,D03B04,시장/종합상가,G47129,기타 음·식료품 위주 종합 소매업,50,제주특별자치도,50110,제주시,5011054000,이도2동,5011012900,도남동,5.01E+18,1,대지,705,5,제주특별자치도 제주시 도남동 705-5,5.01E+11,제주특별자치도 제주시 복지로3길,1,4,5.01E+24,,제주특별자치도 제주시 복지로3길 1-4,690029,63220,,2,,126.5232917,33.48929602
15495017,거멍국수,,Q,음식,Q04,분식,Q04A02,국수/만두/칼국수,I56194,분식 및 김밥 전문점,50,제주특별자치도,50130,서귀포시,5013031000,안덕면,5013031025,안덕면,5.01E+18,1,대지,516,,제주특별자치도 서귀포시 안덕면 사계리 516,5.01E+11,제주특별자치도 서귀포시 안덕면 사계로114번길,53,15,5.01E+24,,제주특별자치도 서귀포시 안덕면 사계로114번길 53-15,699923,63528,,1,,126.3039572,33.24334809
25875442,하나로국밥,,Q,음식,Q01,한식,Q01A01,한식/백반/한정식,I56111,한식 음식점업,50,제주특별자치도,50110,제주시,5011059000,건입동,5011010700,건입동,5.01E+18,1,대지,1310,2,제주특별자치도 제주시 건입동 1310-2,5.01E+11,제주특별자치도 제주시 산지로,1,2,5.01E+24,,제주특별자치도 제주시 산지로 1-2,690801,63278,,,,126.5308855,33.51620809
28524521,아만토브펜션,,O,숙박,O03,캠프/별장/펜션,O03A01,캠프/별장/펜션,I55119,기타 관광숙박시설 운영업,50,제주특별자치도,50130,서귀포시,5013062000,예래동,5013012100,하예동,5.01E+18,1,대지,1831,,제주특별자치도 서귀포시 하예동 1831,5.01E+11,제주특별자치도 서귀포시 예래로,446,,5.01E+24,,제주특별자치도 서귀포시 예래로 446,697310,63538,,1,,126.3704384,33.23569905
23381909,현미미스킨케어,,F,생활서비스,F01,이/미용/건강,F01A03,비만/피부관리,,,50,제주특별자치도,50130,서귀포시,5013053000,중앙동,5013010100,서귀동,5.01E+18,1,대지,290,5,제주특별자치도 서귀포시 서귀동 290-5,5.01E+11,제주특별자치도 서귀포시 중앙로,70,1,5.01E+24,동문레코드,제주특별자치도 서귀포시 중앙로 70-1,697843,63591,,,,126.5615565,33.2508772
20298806,열두마루,,Q,음식,Q09,유흥주점,Q09A08,빠/카페/스탠드빠,I56211,일반유흥 주점업,50,제주특별자치도,50110,제주시,5011025600,구좌읍,5011025630,구좌읍,5.01E+18,1,대지,982,,제주특별자치도 제주시 구좌읍 한동리 982,5.01E+11,제주특별자치도 제주시 구좌읍 한동로1길,38,,5.01E+24,,제주특별자치도 제주시 구좌읍 한동로1길 38,695982,63359,,,,126.8253713,33.53568807
25267149,신제주,,F,생활서비스,F01,이/미용/건강,F01A01,여성미용실,S96112,두발미용업,50,제주특별자치도,50110,제주시,5011053000,이도1동,5011010300,이도일동,5.01E+18,1,대지,1790,1,제주특별자치도 제주시 이도일동 1790-1,5.01E+11,제주특별자치도 제주시 광양2길,19,,5.01E+24,,제주특별자치도 제주시 광양2길 19,690828,63198,,1,,126.5274311,33.5021927
22894576,놀멍쉬멍가게,,D,소매,D03,종합소매점,D03A03,잡화점,G47190,그외 기타 종합 소매업,50,제주특별자치도,50110,제주시,5011054000,이도2동,5011012900,도남동,5.01E+18,1,대지,922,37,제주특별자치도 제주시 도남동 922-37,5.01E+11,제주특별자치도 제주시 신성로,85,,5.01E+24,,제주특별자치도 제주시 신성로 85,690806,63200,,1,,126.5283765,33.49592899
25876341,시골길,중문점,Q,음식,Q01,한식,Q01A01,한식/백반/한정식,I56111,한식 음식점업,50,제주특별자치도,50130,서귀포시,5013061000,중문동,5013011200,중문동,5.01E+18,1,대지,2116,1,제주특별자치도 서귀포시 중문동 2116-1,5.01E+11,제주특별자치도 서귀포시 천제연로,170,,5.01E+24,,제주특별자치도 서귀포시 천제연로 170,697858,63546,,,,126.4227528,33.25170052
24057536,MOMOENGLISH어학원,,R,학문/교육,R04,학원-어학,R04A01,학원-외국어/어학,P85502,외국어학원,50,제주특별자치도,50110,제주시,5011066000,노형동,5011012200,노형동,5.01E+18,1,대지,1055,9,제주특별자치도 제주시 노형동 1055-9,5.01E+11,제주특별자치도 제주시 월랑로,29,,5.01E+24,,제주특별자치도 제주시 월랑로 29,690803,63099,,4,,126.4765268,33.48819794
25334588,월척회센타,,Q,음식,Q01,한식,Q01A04,한정식전문,I56111,한식 음식점업,50,제주특별자치도,50110,제주시,5011053000,이도1동,5011010300,이도일동,5.01E+18,1,대지,1349,4,제주특별자치도 제주시 이도일동 1349-4,5.01E+11,제주특별자치도 제주시 관덕로14길,12,,5.01E+24,,제주특별자치도 제주시 관덕로14길 12,690829,63192,,1,,126.5262086,33.51209546
22823916,비양축산,,D,소매,D01,음/식료품소매,D01A03,정육점,G47212,육류 소매업,50,제주특별자치도,50110,제주시,5011057000,용담1동,5011010800,용담일동,5.01E+18,1,대지,2816,2,제주특별자치도 제주시 용담일동 2816-2,5.01E+11,제주특별자치도 제주시 남성로,34,,5.01E+24,,제주특별자치도 제주시 남성로 34,690843,63175,,1,,126.5132516,33.50320441
25368799,두발창조,,F,생활서비스,F01,이/미용/건강,F01A01,여성미용실,S96112,두발미용업,50,제주특별자치도,50110,제주시,5011054000,이도2동,5011012900,도남동,5.01E+18,1,대지,918,4,제주특별자치도 제주시 도남동 918-4,5.01E+11,제주특별자치도 제주시 도남로,43,,5.01E+24,,제주특별자치도 제주시 도남로 43,690806,63200,,1,,126.5268396,33.49645167
24857801,법인대동에프엔비,,D,소매,D01,음/식료품소매,D01A06,육류소매,G47212,육류 소매업,50,제주특별자치도,50110,제주시,5011058000,용담2동,5011010900,용담이동,5.01E+18,1,대지,2635,3,제주특별자치도 제주시 용담이동 2635-3,5.01E+11,제주특별자치도 제주시 서광로,109,,5.01E+24,,제주특별자치도 제주시 서광로 109,690822,63163,,,,126.5086057,33.50051598
25123091,신양정보통신,,F,생활서비스,F06,사진,F06A01,사진관,M73301,인물사진 및 행사용비디오 촬영업,50,제주특별자치도,50110,제주시,5011053000,이도1동,5011010300,이도일동,5.01E+18,1,대지,1521,,제주특별자치도 제주시 이도일동 1521,5.01E+11,제주특별자치도 제주시 중앙로,103,,5.01E+24,,제주특별자치도 제주시 중앙로 103,690829,63193,,,,126.5237837,33.50911845
23808249,우정회센타,2호점,Q,음식,Q03,일식/수산물,Q03A01,횟집,I56111,한식 음식점업,50,제주특별자치도,50130,서귀포시,5013053000,중앙동,5013010100,서귀동,5.01E+18,1,대지,276,2,제주특별자치도 서귀포시 서귀동 276-2,5.01E+11,제주특별자치도 서귀포시 중앙로54번길,38,,5.01E+24,페리카나,제주특별자치도 서귀포시 중앙로54번길 38,697842,63591,,,,126.5636351,33.24975617
28495759,과수원민박,,O,숙박,O05,민박/하숙,O05A01,민박/하숙,,,50,제주특별자치도,50130,서귀포시,5013062000,예래동,5013011900,색달동,5.01E+18,1,대지,2146,1,제주특별자치도 서귀포시 색달동 2146-1,5.01E+11,제주특별자치도 서귀포시 색달로,22,,5.01E+24,과수원민박,제주특별자치도 서귀포시 색달로 22,697807,63534,,1,,126.4063134,33.25999286
28524459,세븐일레븐,서귀포롯데기숙사점,D,소매,D03,종합소매점,D03A01,편의점,G47122,체인화 편의점,50,제주특별자치도,50130,서귀포시,5013062000,예래동,5013012000,상예동,5.01E+18,1,대지,775,,제주특별자치도 서귀포시 상예동 775,5.01E+11,제주특별자치도 서귀포시 예래로109번길,14,,5.01E+24,롯데호텔기숙사,제주특별자치도 서귀포시 예래로109번길 14,697301,63536,,,,126.3960319,33.25122347
25427192,현대바이오텍,,D,소매,D01,음/식료품소매,D01A13,청과물소매,G47214,과실 및 채소 소매업,50,제주특별자치도,50110,제주시,5011025900,조천읍,5011025924,조천읍,5.01E+18,1,대지,750,,제주특별자치도 제주시 조천읍 함덕리 750,5.01E+11,제주특별자치도 제주시 조천읍 함덕남12길,115,6,5.01E+24,,제주특별자치도 제주시 조천읍 함덕남12길 115-6,695965,63334,,,,126.6701988,33.52730294
24799328,헤어체인지,,F,생활서비스,F01,이/미용/건강,F01A01,여성미용실,S96112,두발미용업,50,제주특별자치도,50110,제주시,5011057000,용담1동,5011010800,용담일동,5.01E+18,1,대지,238,1,제주특별자치도 제주시 용담일동 238-1,5.01E+11,제주특별자치도 제주시 용담로20길,9,,5.01E+24,,제주특별자치도 제주시 용담로20길 9,690820,63174,,,,126.5151977,33.50834867
24435159,디에스과학교실,,R,학문/교육,R01,학원-보습교습입시,R01A01,학원-입시,P85501,일반 교과 학원,50,제주특별자치도,50130,서귀포시,5013057000,동홍동,5013010500,동홍동,5.01E+18,1,대지,1546,23,제주특별자치도 서귀포시 동홍동 1546-23,5.01E+11,제주특별자치도 서귀포시 일주동로,8672,,5.01E+24,예가,제주특별자치도 서귀포시 일주동로 8672,697839,63585,,3,,126.5617697,33.2535845
26742871,놀이터식당,,Q,음식,Q01,한식,Q01A01,한식/백반/한정식,I56111,한식 음식점업,50,제주특별자치도,50130,서귀포시,5013051000,송산동,5013010100,서귀동,5.01E+18,1,대지,661,4,제주특별자치도 서귀포시 서귀동 661-4,5.01E+11,제주특별자치도 서귀포시 솔동산로10번길,40,,5.01E+24,우주연립,제주특별자치도 서귀포시 솔동산로10번길 40,697842,63596,가,,,126.5622826,33.24126538
21649884,꼬마숲어린이집,,R,학문/교육,R09,학원기타,R09A01,학원(종합),P85501,일반 교과 학원,50,제주특별자치도,50110,제주시,5011058000,용담2동,5011010900,용담이동,5.01E+18,1,대지,479,,제주특별자치도 제주시 용담이동 479,5.01E+11,제주특별자치도 제주시 용담로9길,21,,5.01E+24,,제주특별자치도 제주시 용담로9길 21,690821,63152,,,,126.51204,33.51426113
15566343,기아카클리닉,화북점,F,생활서비스,F14,자동차/이륜차,F14A01,자동차정비/카센타,,,50,제주특별자치도,50110,제주시,5011061000,삼양동,5011011300,삼양일동,5.01E+18,1,대지,1577,1,제주특별자치도 제주시 삼양일동 1577-1,5.01E+11,제주특별자치도 제주시 선사로8길,87,,5.01E+24,대유아파트,제주특별자치도 제주시 선사로8길 87,690071,63314,,,,126.5929949,33.52986687
20740785,갈옷촌,,D,소매,D05,의복의류,D05A10,한복/갈옷/민속옷,G47412,한복 소매업,50,제주특별자치도,50110,제주시,5011051000,일도1동,5011010100,일도일동,5.01E+18,1,대지,1070,7,제주특별자치도 제주시 일도일동 1070-7,5.01E+11,제주특별자치도 제주시 동문로,42,,5.01E+24,,제주특별자치도 제주시 동문로 42,690835,63264,,,,126.5311667,33.51293872
23669780,끌어모아,,F,생활서비스,F01,이/미용/건강,F01A01,여성미용실,S96112,두발미용업,50,제주특별자치도,50130,서귀포시,5013057000,동홍동,5013010500,동홍동,5.01E+18,1,대지,205,14,제주특별자치도 서귀포시 동홍동 205-14,5.01E+11,제주특별자치도 서귀포시 태평로536번길,28,,5.01E+24,,제주특별자치도 서귀포시 태평로536번길 28,697835,63597,,,,126.5761544,33.25127962
21474862,백합문구사,,D,소매,D08,사무/문구/컴퓨터,D08A01,사무/문구용품,G47612,문구용품 소매업,50,제주특별자치도,50110,제주시,5011059000,건입동,5011010700,건입동,5.01E+18,1,대지,1043,67,제주특별자치도 제주시 건입동 1043-67,5.01E+11,제주특별자치도 제주시 동문로,93,,5.01E+24,,제주특별자치도 제주시 동문로 93,690800,63282,,1,,126.5366483,33.51402238
22816153,콩콩노래연습장,,N,관광/여가/오락,N02,무도/유흥/가무,N02A01,노래방,R91223,노래연습장 운영업,50,제주특별자치도,50110,제주시,5011054000,이도2동,5011010400,이도이동,5.01E+18,1,대지,1058,3,제주특별자치도 제주시 이도이동 1058-3,5.01E+11,제주특별자치도 제주시 고산동산5길,6,,5.01E+24,,제주특별자치도 제주시 고산동산5길 6,690825,63210,,1,,126.5338804,33.49562459
28499919,방앗돌,,Q,음식,Q09,유흥주점,Q09A10,룸살롱/단란주점,I56211,일반유흥 주점업,50,제주특별자치도,50130,서귀포시,5013032000,표선면,5013032023,표선면,5.01E+18,1,대지,743,1,제주특별자치도 서귀포시 표선면 성읍리 743-1,5.01E+11,제주특별자치도 서귀포시 표선면 성읍서문로,36,5,5.01E+24,,제주특별자치도 서귀포시 표선면 성읍서문로 36-5,699912,63624,,,,126.7976603,33.385997
22889273,제주일성콘도미니엄1,,Q,음식,Q01,한식,Q01A01,한식/백반/한정식,I56111,한식 음식점업,50,제주특별자치도,50110,제주시,5011025000,한림읍,5011025033,한림읍,5.01E+18,1,대지,1625,,제주특별자치도 제주시 한림읍 금능리 1625,5.01E+11,제주특별자치도 제주시 한림읍 한림로,127,,5.01E+24,일성비치콘도미니엄,제주특별자치도 제주시 한림읍 한림로 127,695923,63010,,,,126.2211771,33.38577141
23911831,기수나유나,,P,스포츠,P01,운영관리시설,P01A11,기타경기후원업/경기단체,R91199,그외 기타 스포츠 서비스업,50,제주특별자치도,50110,제주시,5011025300,애월읍,5011025342,애월읍,5.01E+18,1,대지,1206,,제주특별자치도 제주시 애월읍 유수암리 1206,5.01E+11,제주특별자치도 제주시 애월읍 평화로,2144,,5.01E+24,,제주특별자치도 제주시 애월읍 평화로 2144,695794,63066,,,,126.3931762,33.40982751
20490048,녹두네,,Q,음식,Q01,한식,Q01A01,한식/백반/한정식,I56111,한식 음식점업,50,제주특별자치도,50110,제주시,5011066000,노형동,5011012200,노형동,5.01E+18,1,대지,939,7,제주특별자치도 제주시 노형동 939-7,5.01E+11,제주특별자치도 제주시 원노형로,42,,5.01E+24,,제주특별자치도 제주시 원노형로 42,690802,63082,,,,126.4847698,33.48505337
21648858,서울집수리,,D,소매,D21,철물/난방/건설자재소매,D21A01,건축백화점,G47519,"페인트, 유리 및 기타 건설자재 소매업",50,제주특별자치도,50130,서귀포시,5013056000,영천동,5013011100,토평동,5.01E+18,1,대지,2308,7,제주특별자치도 서귀포시 토평동 2308-7,5.01E+11,제주특별자치도 서귀포시 검은여로,230,1,5.01E+24,,제주특별자치도 서귀포시 검은여로 230-1,697859,63604,,,,126.5875367,33.26147146
23010880,정환사,,F,생활서비스,F02,세탁/가사서비스,F02A01,세탁소/빨래방,S96912,가정용 세탁업,50,제주특별자치도,50110,제주시,5011054000,이도2동,5011010400,이도이동,5.01E+18,1,대지,1140,1,제주특별자치도 제주시 이도이동 1140-1,5.01E+11,제주특별자치도 제주시 광양13길,20,,5.01E+24,,제주특별자치도 제주시 광양13길 20,690827,63209,,,,126.5325034,33.49943097
23363913,리치망고,신제주점,Q,음식,Q12,커피점/카페,Q12A01,커피전문점/카페/다방,I56220,비알콜 음료점업,50,제주특별자치도,50110,제주시,5011065000,연동,5011013700,연동,5.01E+18,1,대지,1399,,제주특별자치도 제주시 연동 1399,5.01E+11,제주특별자치도 제주시 국기로,14,,5.01E+24,대림아파트,제주특별자치도 제주시 국기로 14,690764,63138,,,,126.4892973,33.48022214
22937256,중앙베이커리,3호점,Q,음식,Q08,제과제빵떡케익,Q08A01,제과점,I56191,제과점업,50,제주특별자치도,50130,서귀포시,5013025000,대정읍,5013025022,대정읍,5.01E+18,1,대지,1224,,제주특별자치도 서귀포시 대정읍 하모리 1224,5.01E+11,제주특별자치도 서귀포시 대정읍 동일하모로,158,3,5.01E+24,제주킹마트,제주특별자치도 서귀포시 대정읍 동일하모로 158-3,699935,63507,,,,126.2484804,33.22540437
21463160,한결보습학원,,R,학문/교육,R01,학원-보습교습입시,R01A01,학원-입시,P85501,일반 교과 학원,50,제주특별자치도,50110,제주시,5011053000,이도1동,5011010300,이도일동,5.01E+18,1,대지,1244,4,제주특별자치도 제주시 이도일동 1244-4,5.01E+11,제주특별자치도 제주시 동광로,51,,5.01E+24,,제주특별자치도 제주시 동광로 51,690828,63196,,,,126.5340652,33.50317296
21457663,제주특산쇼핑,,D,소매,D02,선물/팬시/기념품,D02A05,토산품/기념품점,G47842,관광 민예품 및 선물용품 소매업,50,제주특별자치도,50110,제주시,5011065000,연동,5011013700,연동,5.01E+18,1,대지,174,3,제주특별자치도 제주시 연동 174-3,5.01E+11,제주특별자치도 제주시 연삼로,51,,5.01E+24,,제주특별자치도 제주시 연삼로 51,690813,63148,,,,126.4981305,33.49391617
20412783,영영,,Q,음식,Q01,한식,Q01A01,한식/백반/한정식,I56111,한식 음식점업,50,제주특별자치도,50110,제주시,5011057000,용담1동,5011010800,용담일동,5.01E+18,1,대지,306,10,제주특별자치도 제주시 용담일동 306-10,5.01E+11,제주특별자치도 제주시 서문로,1,,5.01E+24,,제주특별자치도 제주시 서문로 1,690819,63155,,,,126.5120774,33.50956441
24006565,유어스플라워,,D,소매,D02,선물/팬시/기념품,D02A02,꽃집/꽃배달,G47851,화초 및 산식물 소매업,50,제주특별자치도,50110,제주시,5011025900,조천읍,5011025923,조천읍,5.01E+18,1,대지,3231,,제주특별자치도 제주시 조천읍 조천리 3231,5.01E+11,제주특별자치도 제주시 조천읍 신북로,178,,5.01E+24,,제주특별자치도 제주시 조천읍 신북로 178,695964,63331,,,,126.6321463,33.5347413
28487585,올리브와뽀빠이,,Q,음식,Q01,한식,Q01A01,한식/백반/한정식,I56111,한식 음식점업,50,제주특별자치도,50110,제주시,5011065000,연동,5011013700,연동,5.01E+18,1,대지,261,7,제주특별자치도 제주시 연동 261-7,5.01E+11,제주특별자치도 제주시 신광로,32,1,5.01E+24,,제주특별자치도 제주시 신광로 32-1,690813,63129,,,,126.4899047,33.48923622
20362522,블로그시즌투피시방구내,,N,관광/여가/오락,N01,PC/오락/당구/볼링등,N01A01,인터넷PC방,R91222,컴퓨터 게임방 운영업,50,제주특별자치도,50110,제주시,5011054000,이도2동,5011012900,도남동,5.01E+18,1,대지,909,4,제주특별자치도 제주시 도남동 909-4,5.01E+11,제주특별자치도 제주시 도남로,42,,5.01E+24,,제주특별자치도 제주시 도남로 42,690806,63201,,1,,126.5264551,33.49628481
28523225,헨젤과그레TEL펜션,,O,숙박,O03,캠프/별장/펜션,O03A01,캠프/별장/펜션,I55119,기타 관광숙박시설 운영업,50,제주특별자치도,50110,제주시,5011025300,애월읍,5011025342,애월읍,5.01E+18,1,대지,2466,1,제주특별자치도 제주시 애월읍 유수암리 2466-1,5.01E+11,제주특별자치도 제주시 애월읍 유소길,14,,5.01E+24,,제주특별자치도 제주시 애월읍 유소길 14,695916,63067,,1,,126.3956318,33.43119926
20370092,제주목마,,D,소매,D10,건강/미용식품,D10A04,건강식품판매,G47216,건강보조식품 소매업,50,제주특별자치도,50130,서귀포시,5013032000,표선면,5013032023,표선면,5.01E+18,1,대지,1665,5,제주특별자치도 서귀포시 표선면 성읍리 1665-5,5.01E+11,제주특별자치도 서귀포시 표선면 서성일로,45,,5.01E+24,,제주특별자치도 서귀포시 표선면 서성일로 45,699912,63624,,,,126.8012729,33.39607608
20370204,동희,,Q,음식,Q03,일식/수산물,Q03A01,횟집,I56111,한식 음식점업,50,제주특별자치도,50110,제주시,5011058000,용담2동,5011010900,용담이동,5.01E+18,1,대지,447,,제주특별자치도 제주시 용담이동 447,5.01E+11,제주특별자치도 제주시 흥운길,89,,5.01E+24,,제주특별자치도 제주시 흥운길 89,690821,63152,,1,,126.5135017,33.51564005
24197594,한라종합가구,,D,소매,D15,가구소매,D15A01,일반가구소매,G47520,가구 소매업,50,제주특별자치도,50110,제주시,5011059000,건입동,5011010700,건입동,5.01E+18,1,대지,658,,제주특별자치도 제주시 건입동 658,5.01E+11,제주특별자치도 제주시 임항로,251,,5.01E+24,,제주특별자치도 제주시 임항로 251,690800,63283,,,,126.5393228,33.51755205
24032710,대승상사,,D,소매,D03,종합소매점,D03A04,생활용품판매,G47190,그외 기타 종합 소매업,50,제주특별자치도,50110,제주시,5011064000,오라동,5011012000,오라이동,5.01E+18,1,대지,1373,1,제주특별자치도 제주시 오라이동 1373-1,5.01E+11,제주특별자치도 제주시 연사길,60,,5.01E+24,회성푸르니3차,제주특별자치도 제주시 연사길 60,690162,63145,,,,126.5127057,33.48918744
15535118,다원수산,,Q,음식,Q03,일식/수산물,Q03A02,음식점-일식,I56113,일식 음식점업,50,제주특별자치도,50110,제주시,5011025000,한림읍,5011025027,한림읍,5.01E+18,1,대지,1921,1,제주특별자치도 제주시 한림읍 명월리 1921-1,5.01E+11,제주특별자치도 제주시 한림읍 명월성로,209,,5.01E+24,,제주특별자치도 제주시 한림읍 명월성로 209,695927,63014,,,,126.2639228,33.39030755
24966618,엘앤씨어학원,,R,학문/교육,R04,학원-어학,R04A01,학원-외국어/어학,P85502,외국어학원,50,제주특별자치도,50110,제주시,5011065000,연동,5011013700,연동,5.01E+18,1,대지,1400,3,제주특별자치도 제주시 연동 1400-3,5.01E+11,제주특별자치도 제주시 과원북4길,73,,5.01E+24,효정빌딩1차,제주특별자치도 제주시 과원북4길 73,690817,63138,,3,,126.4893664,33.48119668
25967555,한길건제상사,,D,소매,D03,종합소매점,D03B04,시장/종합상가,G47129,기타 음·식료품 위주 종합 소매업,50,제주특별자치도,50110,제주시,5011066000,노형동,5011012200,노형동,5.01E+18,1,대지,3186,,제주특별자치도 제주시 노형동 3186,5.01E+11,제주특별자치도 제주시 노형로,242,,5.01E+24,,제주특별자치도 제주시 노형로 242,690805,63093,,,,126.4660919,33.47526697
22880197,남성이용원,,F,생활서비스,F01,이/미용/건강,F01A04,남성미용실,S96111,이용업,50,제주특별자치도,50130,서귀포시,5013053000,중앙동,5013010100,서귀동,5.01E+18,1,대지,278,15,제주특별자치도 서귀포시 서귀동 278-15,5.01E+11,제주특별자치도 서귀포시 중정로61번길,32,,5.01E+24,남성이용원,제주특별자치도 서귀포시 중정로61번길 32,697843,63591,,,,126.5627406,33.25064745
20444169,영해식당,,Q,음식,Q01,한식,Q01A01,한식/백반/한정식,I56111,한식 음식점업,50,제주특별자치도,50130,서귀포시,5013025000,대정읍,5013025022,대정읍,5.01E+18,1,대지,923,4,제주특별자치도 서귀포시 대정읍 하모리 923-4,5.01E+11,제주특별자치도 서귀포시 대정읍 하모상가로,34,2,5.01E+24,영해식당,제주특별자치도 서귀포시 대정읍 하모상가로 34-2,699935,63508,,1,,126.2525291,33.22139527
20399214,석화,,Q,음식,Q09,유흥주점,Q09A10,룸살롱/단란주점,I56211,일반유흥 주점업,50,제주특별자치도,50110,제주시,5011052000,일도2동,5011010200,일도이동,5.01E+18,1,대지,370,16,제주특별자치도 제주시 일도이동 370-16,5.01E+11,제주특별자치도 제주시 동광로20길,29,,5.01E+24,,제주특별자치도 제주시 동광로20길 29,690830,63254,,-1,,126.5425728,33.50860164
20427536,유정,,Q,음식,Q09,유흥주점,Q09A10,룸살롱/단란주점,I56211,일반유흥 주점업,50,제주특별자치도,50110,제주시,5011056000,삼도2동,5011010600,삼도이동,5.01E+18,1,대지,892,1,제주특별자치도 제주시 삼도이동 892-1,5.01E+11,제주특별자치도 제주시 무근성7길,5,,5.01E+24,,제주특별자치도 제주시 무근성7길 5,690808,63167,,,,126.5197716,33.51340712
20433485,백향,,Q,음식,Q09,유흥주점,Q09A10,룸살롱/단란주점,I56211,일반유흥 주점업,50,제주특별자치도,50110,제주시,5011056000,삼도2동,5011010600,삼도이동,5.01E+18,1,대지,599,5,제주특별자치도 제주시 삼도이동 599-5,5.01E+11,제주특별자치도 제주시 서사로,73,,5.01E+24,,제주특별자치도 제주시 서사로 73,690850,63171,,,,126.5201559,33.50600982
28514174,페이퍼상상체험박물관,,R,학문/교육,R09,학원기타,R09A01,학원(종합),P85501,일반 교과 학원,50,제주특별자치도,50110,제주시,5011025300,애월읍,5011025329,애월읍,5.01E+18,1,대지,148,2,제주특별자치도 제주시 애월읍 고성리 148-2,5.01E+11,제주특별자치도 제주시 애월읍 평화로,2590,,5.01E+24,,제주특별자치도 제주시 애월읍 평화로 2590,695902,63065,,,,126.4276628,33.43780328
15531310,늘바다통나무펜션,,O,숙박,O03,캠프/별장/펜션,O03A01,캠프/별장/펜션,I55119,기타 관광숙박시설 운영업,50,제주특별자치도,50130,서귀포시,5013031000,안덕면,5013031022,안덕면,5.01E+18,1,대지,901,6,제주특별자치도 서귀포시 안덕면 창천리 901-6,5.01E+11,제주특별자치도 서귀포시 안덕면 대평로,38,,5.01E+24,,제주특별자치도 서귀포시 안덕면 대평로 38,699923,63533,,,,126.3636723,33.23723306
26326845,오방네호반닭갈비,,Q,음식,Q01,한식,Q01A01,한식/백반/한정식,I56111,한식 음식점업,50,제주특별자치도,50110,제주시,5011065000,연동,5011013700,연동,5.01E+18,1,대지,255,6,제주특별자치도 제주시 연동 255-6,5.01E+11,제주특별자치도 제주시 신광로10길,22,,5.01E+24,,제주특별자치도 제주시 신광로10길 22,690813,63132,,,,126.4873813,33.48398536
24779759,웰빙,,D,소매,D01,음/식료품소매,D01A13,청과물소매,G47214,과실 및 채소 소매업,50,제주특별자치도,50130,서귀포시,5013025300,남원읍,5013025325,남원읍,5.01E+18,1,대지,1837,1,제주특별자치도 서귀포시 남원읍 의귀리 1837-1,5.01E+11,제주특별자치도 서귀포시 남원읍 한신로143번길,85,,5.01E+24,웰빙유통,제주특별자치도 서귀포시 남원읍 한신로143번길 85,699942,63618,,,,126.7062263,33.31801498
24581914,영어페럴,,D,소매,D05,의복의류,D05A01,일반의류,G47416,셔츠 및 기타 의복 소매업,50,제주특별자치도,50130,서귀포시,5013052000,정방동,5013010100,서귀동,5.01E+18,1,대지,404,4,제주특별자치도 서귀포시 서귀동 404-4,5.01E+11,제주특별자치도 서귀포시 중정로,80,1,5.01E+24,,제주특별자치도 서귀포시 중정로 80-1,697841,63595,,,,126.5650253,33.24807719
24645589,서귀포농협유통자재센타,,D,소매,D01,음/식료품소매,D01A13,청과물소매,G47214,과실 및 채소 소매업,50,제주특별자치도,50130,서귀포시,5013056000,영천동,5013011100,토평동,5.01E+18,1,대지,2283,1,제주특별자치도 서귀포시 토평동 2283-1,5.01E+11,제주특별자치도 서귀포시 516로,125,,5.01E+24,,제주특별자치도 서귀포시 516로 125,697859,63604,,,,126.5827121,33.26450008
28477124,가품육개장,,Q,음식,Q01,한식,Q01A01,한식/백반/한정식,I56111,한식 음식점업,50,제주특별자치도,50110,제주시,5011066000,노형동,5011012200,노형동,5.01E+18,1,대지,944,20,제주특별자치도 제주시 노형동 944-20,5.01E+11,제주특별자치도 제주시 원노형로,53,,5.01E+24,,제주특별자치도 제주시 원노형로 53,690802,63084,,1,,126.4850607,33.48379473
20238098,해진횟집,,Q,음식,Q03,일식/수산물,Q03A01,횟집,I56111,한식 음식점업,50,제주특별자치도,50110,제주시,5011059000,건입동,5011010700,건입동,5.01E+18,1,대지,1435,2,제주특별자치도 제주시 건입동 1435-2,5.01E+11,제주특별자치도 제주시 서부두길,22,,5.01E+24,,제주특별자치도 제주시 서부두길 22,690801,63276,,,,126.5285367,33.51825382
20232259,골프존클럽하우스,,Q,음식,Q01,한식,Q01A01,한식/백반/한정식,I56111,한식 음식점업,50,제주특별자치도,50110,제주시,5011066000,노형동,5011012200,노형동,5.01E+18,1,대지,2579,3,제주특별자치도 제주시 노형동 2579-3,5.01E+11,제주특별자치도 제주시 월랑로,51,,5.01E+24,,제주특별자치도 제주시 월랑로 51,690841,63100,,,,126.4748002,33.48971838
20269046,제주인화찐빵,,Q,음식,Q08,제과제빵떡케익,Q08A05,찐빵전문,I56194,분식 및 김밥 전문점,50,제주특별자치도,50130,서귀포시,5013053000,중앙동,5013010100,서귀동,5.01E+18,1,대지,260,40,제주특별자치도 서귀포시 서귀동 260-40,5.01E+11,제주특별자치도 서귀포시 동홍로,19,,5.01E+24,,제주특별자치도 서귀포시 동홍로 19,697843,63590,,,,126.5677039,33.25029899
25220906,미도리농장,,D,소매,D01,음/식료품소매,D01A13,청과물소매,G47214,과실 및 채소 소매업,50,제주특별자치도,50110,제주시,5011025300,애월읍,5011025330,애월읍,5.01E+18,1,대지,285,1,제주특별자치도 제주시 애월읍 하가리 285-1,5.01E+11,제주특별자치도 제주시 애월읍 신엄2길,76,10,5.01E+24,,제주특별자치도 제주시 애월읍 신엄2길 76-10,695915,63036,,,,126.362165,33.46179322
20530590,연정,,Q,음식,Q01,한식,Q01A01,한식/백반/한정식,I56111,한식 음식점업,50,제주특별자치도,50110,제주시,5011065000,연동,5011013700,연동,5.01E+18,1,대지,256,,제주특별자치도 제주시 연동 256,5.01E+11,제주특별자치도 제주시 신광로10길,29,,5.01E+24,,제주특별자치도 제주시 신광로10길 29,690813,63137,,1,,126.4868256,33.48377121
24174869,신제주나이키,,D,소매,D05,의복의류,D05A01,일반의류,G47416,셔츠 및 기타 의복 소매업,50,제주특별자치도,50110,제주시,5011065000,연동,5011013700,연동,5.01E+18,1,대지,273,17,제주특별자치도 제주시 연동 273-17,5.01E+11,제주특별자치도 제주시 신광로,63,,5.01E+24,,제주특별자치도 제주시 신광로 63,690814,63123,,,,126.4902751,33.48649095
21654067,아기천사어린이집,,R,학문/교육,R08,유아교육,R08A02,어린이집,Q87210,보육시설 운영업,50,제주특별자치도,50110,제주시,5011025000,한림읍,5011025023,한림읍,5.01E+18,1,대지,1901,4,제주특별자치도 제주시 한림읍 대림리 1901-4,5.01E+11,제주특별자치도 제주시 한림읍 대림4길,13,,5.01E+24,대림주택,제주특별자치도 제주시 한림읍 대림4길 13,695925,63030,,,,126.2653453,33.42039381
26321443,오이제해장국,,Q,음식,Q01,한식,Q01A01,한식/백반/한정식,I56111,한식 음식점업,50,제주특별자치도,50110,제주시,5011056000,삼도2동,5011010600,삼도이동,5.01E+18,1,대지,108,2,제주특별자치도 제주시 삼도이동 108-2,5.01E+11,제주특별자치도 제주시 관덕로6길,11,,5.01E+24,송원빌딩,제주특별자치도 제주시 관덕로6길 11,690809,63168,,1,,126.522259,33.51207545
21646518,로얄악기사,,D,소매,D04,취미/오락관련소매,D04A09,악기판매,G47593,악기 소매업,50,제주특별자치도,50110,제주시,5011056000,삼도2동,5011010600,삼도이동,5.01E+18,1,대지,819,5,제주특별자치도 제주시 삼도이동 819-5,5.01E+11,제주특별자치도 제주시 중앙로14길,37,,5.01E+24,,제주특별자치도 제주시 중앙로14길 37,690809,63169,,,,126.5207134,33.5105604
21416995,동산보청기의안센타,,D,소매,D20,의약/의료품소매,D20A02,보청기판매,G47812,의료용 기구 소매업,50,제주특별자치도,50110,제주시,5011053000,이도1동,5011010300,이도일동,5.01E+18,1,대지,1405,2,제주특별자치도 제주시 이도일동 1405-2,5.01E+11,제주특별자치도 제주시 중앙로,74,,5.01E+24,,제주특별자치도 제주시 중앙로 74,690829,63168,,,,126.5243863,33.51165904
20359840,GS25자판기노형대리점,노형대리점,D,소매,D03,종합소매점,D03A01,편의점,G47122,체인화 편의점,50,제주특별자치도,50110,제주시,5011066000,노형동,5011012200,노형동,5.01E+18,1,대지,2511,5,제주특별자치도 제주시 노형동 2511-5,5.01E+11,제주특별자치도 제주시 수덕로,75,,5.01E+24,성림미래안아파트,제주특별자치도 제주시 수덕로 75,690840,63103,,1,,126.4702516,33.48404555
20558526,오리지날,,Q,음식,Q09,유흥주점,Q09A10,룸살롱/단란주점,I56211,일반유흥 주점업,50,제주특별자치도,50130,서귀포시,5013025000,대정읍,5013025022,대정읍,5.01E+18,1,대지,962,2,제주특별자치도 서귀포시 대정읍 하모리 962-2,5.01E+11,제주특별자치도 서귀포시 대정읍 하모중앙로,62,2,5.01E+24,골드스타단란주점,제주특별자치도 서귀포시 대정읍 하모중앙로 62-2,699935,63507,,,,126.2520318,33.2226685
21518990,세기보청기,,D,소매,D20,의약/의료품소매,D20A02,보청기판매,G47812,의료용 기구 소매업,50,제주특별자치도,50110,제주시,5011053000,이도1동,5011010300,이도일동,5.01E+18,1,대지,1736,16,제주특별자치도 제주시 이도일동 1736-16,5.01E+11,제주특별자치도 제주시 중앙로,207,,5.01E+24,,제주특별자치도 제주시 중앙로 207,690828,63197,,,,126.529223,33.50123128
20454837,인숙이네보리빵,,Q,음식,Q08,제과제빵떡케익,Q08A01,제과점,I56191,제과점업,50,제주특별자치도,50110,제주시,5011025300,애월읍,5011025334,애월읍,5.01E+18,1,대지,1584,1,제주특별자치도 제주시 애월읍 애월리 1584-1,5.01E+11,제주특별자치도 제주시 애월읍 애월로,118,,5.01E+24,,제주특별자치도 제주시 애월읍 애월로 118,695913,63043,,,,126.3198428,33.46440922
28490422,다소니,,Q,음식,Q12,커피점/카페,Q12A06,전통찻집/인삼찻집,I56220,비알콜 음료점업,50,제주특별자치도,50110,제주시,5011064000,오라동,5011011900,오라일동,5.01E+18,1,대지,995,9,제주특별자치도 제주시 오라일동 995-9,5.01E+11,제주특별자치도 제주시 오남로6길,18,6,5.01E+24,,제주특별자치도 제주시 오남로6길 18-6,690161,63146,,1,,126.5171309,33.4909174
20283435,와와치킨,,Q,음식,Q05,닭/오리요리,Q05A08,후라이드/양념치킨,I56193,치킨 전문점,50,제주특별자치도,50110,제주시,5011069000,도두동,5011012700,도두일동,5.01E+18,1,대지,2622,14,제주특별자치도 제주시 도두일동 2622-14,5.01E+11,제주특별자치도 제주시 도공로,24,1,5.01E+24,,제주특별자치도 제주시 도공로 24-1,690241,63113,,1,,126.4654972,33.50410967
20360545,연주반점,,Q,음식,Q02,중식,Q02A00,중국음식/중국집,I56112,중식 음식점업,50,제주특별자치도,50130,서귀포시,5013051000,송산동,5013010100,서귀동,5.01E+18,1,대지,786,3,제주특별자치도 서귀포시 서귀동 786-3,5.01E+11,제주특별자치도 서귀포시 부두로,55,,5.01E+24,가마골,제주특별자치도 서귀포시 부두로 55,697840,63596,,,,126.5645021,33.24004679
28524267,지니아펜션,,O,숙박,O03,캠프/별장/펜션,O03A01,캠프/별장/펜션,I55119,기타 관광숙박시설 운영업,50,제주특별자치도,50110,제주시,5011025300,애월읍,5011025335,애월읍,5.01E+18,1,대지,2044,,제주특별자치도 제주시 애월읍 납읍리 2044,5.01E+11,제주특별자치도 제주시 애월읍 납읍동3길,53,46,5.01E+24,,제주특별자치도 제주시 애월읍 납읍동3길 53-46,695906,63035,,1,,126.3275007,33.44372315
20863846,원테이블,,Q,음식,Q12,커피점/카페,Q12A01,커피전문점/카페/다방,I56220,비알콜 음료점업,50,제주특별자치도,50130,서귀포시,5013059000,대륜동,5013010200,법환동,5.01E+18,1,대지,237,,제주특별자치도 서귀포시 법환동 237,5.01E+11,제주특별자치도 서귀포시 법환로,14,,5.01E+24,,제주특별자치도 서귀포시 법환로 14,697805,63573,,,,126.513861,33.23680125
24676694,천연염색풍경,,D,소매,D05,의복의류,D05A18,섬유/직물/주단,G47419,"기타 섬유, 직물 및 의복액세서리 소매업",50,제주특별자치도,50130,서귀포시,5013025300,남원읍,5013025321,남원읍,5.01E+18,1,대지,2415,8,제주특별자치도 서귀포시 남원읍 남원리 2415-8,5.01E+11,제주특별자치도 서귀포시 남원읍 태위로510번길,79,19,5.01E+24,,제주특별자치도 서귀포시 남원읍 태위로510번길 79-19,699941,63620,,,,126.6954754,33.27264089
21469395,블랙홀,,N,관광/여가/오락,N01,PC/오락/당구/볼링등,N01A08,전자오락실,R91221,전자 게임장 운영업,50,제주특별자치도,50110,제주시,5011065000,연동,5011013700,연동,5.01E+18,1,대지,251,14,제주특별자치도 제주시 연동 251-14,5.01E+11,제주특별자치도 제주시 연동1길,17,,5.01E+24,대원빌라,제주특별자치도 제주시 연동1길 17,690813,63129,,,,126.4869684,33.48855127
20785382,덕논술,,R,학문/교육,R01,학원-보습교습입시,R01A01,학원-입시,P85501,일반 교과 학원,50,제주특별자치도,50110,제주시,5011052000,일도2동,5011010200,일도이동,5.01E+18,1,대지,359,15,제주특별자치도 제주시 일도이동 359-15,5.01E+11,제주특별자치도 제주시 신산로15길,40,,5.01E+24,,제주특별자치도 제주시 신산로15길 40,690833,63273,,,,126.5390572,33.50709968
21593718,성원태권도체육관,,R,학문/교육,R09,학원기타,R09A01,학원(종합),P85501,일반 교과 학원,50,제주특별자치도,50130,서귀포시,5013061000,중문동,5013011200,중문동,5.01E+18,1,대지,1961,1,제주특별자치도 서귀포시 중문동 1961-1,5.01E+11,제주특별자치도 서귀포시 천제연로214번길,10,,5.01E+24,,제주특별자치도 서귀포시 천제연로214번길 10,697857,63546,,,,126.4272218,33.25081947
15500635,금강개발,,L,부동산,L01,부동산중개,L01A01,부동산중개,L68221,부동산 자문 및 중개업,50,제주특별자치도,50110,제주시,5011065000,연동,5011013700,연동,5.01E+18,1,대지,311,42,제주특별자치도 제주시 연동 311-42,5.01E+11,제주특별자치도 제주시 신대로9길,25,,5.01E+24,광림맨션,제주특별자치도 제주시 신대로9길 25,690815,63119,,,,126.4993774,33.49087496
24707230,꽃보다조명,,D,소매,D07,가정/주방/인테리어,D07A10,조명기구/전기용품,G47591,전기용품 및 조명장치 소매업,50,제주특별자치도,50130,서귀포시,5013056000,영천동,5013011100,토평동,5.01E+18,1,대지,941,8,제주특별자치도 서귀포시 토평동 941-8,5.01E+11,제주특별자치도 서귀포시 일주동로,8472,,5.01E+24,동부건축자재백화점,제주특별자치도 서귀포시 일주동로 8472,697859,63604,,,,126.5827617,33.25677381
23439123,북마크하우스앤카페,,Q,음식,Q12,커피점/카페,Q12A01,커피전문점/카페/다방,I56220,비알콜 음료점업,50,제주특별자치도,50130,서귀포시,5013025000,대정읍,5013025025,대정읍,5.01E+18,1,대지,1318,3,제주특별자치도 서귀포시 대정읍 일과리 1318-3,5.01E+11,제주특별자치도 서귀포시 대정읍 일과대수로11번길,16,8,5.01E+24,,제주특별자치도 서귀포시 대정읍 일과대수로11번길 16-8,699932,63504,,,,126.2315652,33.23867036
21668531,도그홀릭,,D,소매,D09,애견/애완/동물,D09A02,애완동물 미용실,S96995,애완동물 장묘 및 보호 서비스업,50,제주특별자치도,50130,서귀포시,5013057000,동홍동,5013010500,동홍동,5.01E+18,1,대지,135,2,제주특별자치도 서귀포시 동홍동 135-2,5.01E+11,제주특별자치도 서귀포시 일주동로,8543,,5.01E+24,중앙복음교회,제주특별자치도 서귀포시 일주동로 8543,697835,63589,,,,126.5755111,33.25455413
21480848,대우자동차바로정비코너,,F,생활서비스,F14,자동차/이륜차,F14A01,자동차정비/카센타,,,50,제주특별자치도,50110,제주시,5011054000,이도2동,5011010400,이도이동,5.01E+18,1,대지,2006,11,제주특별자치도 제주시 이도이동 2006-11,5.01E+11,제주특별자치도 제주시 구남동2길,1,,5.01E+24,,제주특별자치도 제주시 구남동2길 1,690851,63232,,1,,126.5372939,33.49036367
25201195,사라,,D,소매,D05,의복의류,D05A01,일반의류,G47416,셔츠 및 기타 의복 소매업,50,제주특별자치도,50110,제주시,5011066000,노형동,5011012200,노형동,5.01E+18,1,대지,1047,1,제주특별자치도 제주시 노형동 1047-1,5.01E+11,제주특별자치도 제주시 남녕로,47,,5.01E+24,,제주특별자치도 제주시 남녕로 47,690803,63097,,,,126.4797388,33.49157319
20511061,튼튼건강원,,D,소매,D10,건강/미용식품,D10A07,건강원,G47216,건강보조식품 소매업,50,제주특별자치도,50130,서귀포시,5013025900,성산읍,5013025921,성산읍,5.01E+18,1,대지,170,11,제주특별자치도 서귀포시 성산읍 성산리 170-11,5.01E+11,제주특별자치도 서귀포시 성산읍 성산등용로17번길,29,,5.01E+24,,제주특별자치도 서귀포시 성산읍 성산등용로17번길 29,699903,63643,,,,126.9315833,33.46277052
20638153,던킨도너츠,제주점,Q,음식,Q07,패스트푸드,Q07A06,도너츠전문,I56191,제과점업,50,제주특별자치도,50110,제주시,5011060000,화북동,5011011100,화북일동,5.01E+18,1,대지,4705,,제주특별자치도 제주시 화북일동 4705,5.01E+11,제주특별자치도 제주시 일주동로,98,,5.01E+24,,제주특별자치도 제주시 일주동로 98,690061,63296,,,,126.5574947,33.51477179
28491412,블랙,,Q,음식,Q12,커피점/카페,Q12A01,커피전문점/카페/다방,I56220,비알콜 음료점업,50,제주특별자치도,50130,서귀포시,5013054000,천지동,5013010100,서귀동,5.01E+18,1,대지,296,9,제주특별자치도 서귀포시 서귀동 296-9,5.01E+11,제주특별자치도 서귀포시 중앙로59번길,4,,5.01E+24,블랙잭,제주특별자치도 서귀포시 중앙로59번길 4,697844,63592,,1,,126.5612375,33.25004402
24797163,자연과사람들,,D,소매,D01,음/식료품소매,D01A01,식료품점,G47219,기타 식료품 소매업,50,제주특별자치도,50110,제주시,5011063000,아라동,5011013400,오등동,5.01E+18,1,대지,1162,1,제주특별자치도 제주시 오등동 1162-1,5.01E+11,제주특별자치도 제주시 한북로,73,3,5.01E+24,,제주특별자치도 제주시 한북로 73-3,690150,63240,,,,126.5238836,33.46391469
24582398,박홍근홈패션갤러리보노,,D,소매,D07,가정/주방/인테리어,D07A14,지물판매,G47513,벽지 및 장판류 소매업,50,제주특별자치도,50110,제주시,5011055000,삼도1동,5011010500,삼도일동,5.01E+18,1,대지,718,3,제주특별자치도 제주시 삼도일동 718-3,5.01E+11,제주특별자치도 제주시 서사로12길,37,,5.01E+24,,제주특별자치도 제주시 서사로12길 37,690811,63173,,,,126.5162616,33.50528706
20262765,꿈나라,,O,숙박,O01,호텔/콘도,O01A01,호텔/콘도,,,50,제주특별자치도,50110,제주시,5011066000,노형동,5011012200,노형동,5.01E+18,1,대지,740,1,제주특별자치도 제주시 노형동 740-1,5.01E+11,제주특별자치도 제주시 1100로,3283,,5.01E+24,영화빌딩,제주특별자치도 제주시 1100로 3283,690802,63087,,,,126.4818559,33.47939192
20255400,영평원두막가든,,Q,음식,Q01,한식,Q01A01,한식/백반/한정식,I56111,한식 음식점업,50,제주특별자치도,50110,제주시,5011063000,아라동,5011013600,영평동,5.01E+18,1,대지,807,4,제주특별자치도 제주시 영평동 807-4,5.01E+11,제주특별자치도 제주시 영평길,185,1,5.01E+24,,제주특별자치도 제주시 영평길 185-1,690140,63308,,,,126.5727131,33.48465499
25878080,세븐일레븐,제주항공우주박물관점,D,소매,D03,종합소매점,D03A01,편의점,G47122,체인화 편의점,50,제주특별자치도,50130,서귀포시,5013031000,안덕면,5013031027,안덕면,5.01E+18,2,산,39,,제주특별자치도 서귀포시 안덕면 서광리 39,5.01E+11,제주특별자치도 서귀포시 안덕면 녹차분재로,218,,5.01E+24,제주항공우주박물관,제주특별자치도 서귀포시 안덕면 녹차분재로 218,699923,63521,,,,126.2997202,33.3041909
24130604,플러스이십사,,D,소매,D03,종합소매점,D03A04,생활용품판매,G47190,그외 기타 종합 소매업,50,제주특별자치도,50110,제주시,5011066000,노형동,5011012200,노형동,5.01E+18,1,대지,711,2,제주특별자치도 제주시 노형동 711-2,5.01E+11,제주특별자치도 제주시 연북로,12,,5.01E+24,이레하이텔,제주특별자치도 제주시 연북로 12,690802,63086,,,,126.4825367,33.48169024
20504880,파인휴게소,,Q,음식,Q01,한식,Q01A01,한식/백반/한정식,I56111,한식 음식점업,50,제주특별자치도,50110,제주시,5011025300,애월읍,5011025336,애월읍,5.01E+18,1,대지,3914,,제주특별자치도 제주시 애월읍 어음리 3914,5.01E+11,제주특별자치도 제주시 애월읍 평화로,1738,116,5.01E+24,엘리시안컨츄리클럽,제주특별자치도 제주시 애월읍 평화로 1738-116,695914,63041,,,,126.3799682,33.37140239
20645209,줄,,Q,음식,Q09,유흥주점,Q09A01,호프/맥주,I56219,기타 주점업,50,제주특별자치도,50110,제주시,5011065000,연동,5011013700,연동,5.01E+18,1,대지,274,10,제주특별자치도 제주시 연동 274-10,5.01E+11,제주특별자치도 제주시 신대로18길,56,,5.01E+24,,제주특별자치도 제주시 신대로18길 56,690814,63133,,,,126.4905072,33.484898
20638834,탐라국꾼꼬치구이퓨전주점,사랑점,Q,음식,Q09,유흥주점,Q09A03,꼬치구이전문점,I56219,기타 주점업,50,제주특별자치도,50110,제주시,5011054000,이도2동,5011012900,도남동,5.01E+18,1,대지,922,,제주특별자치도 제주시 도남동 922,5.01E+11,제주특별자치도 제주시 도남로7길,41,,5.01E+24,,제주특별자치도 제주시 도남로7길 41,690806,63200,,,,126.5273748,33.49662031
25897140,대봉식당,,Q,음식,Q01,한식,Q01A05,해장국/감자탕,I56111,한식 음식점업,50,제주특별자치도,50110,제주시,5011067000,외도동,5011012300,외도일동,5.01E+18,1,대지,405,6,제주특별자치도 제주시 외도일동 405-6,5.01E+11,제주특별자치도 제주시 일주서로,7330,,5.01E+24,,제주특별자치도 제주시 일주서로 7330,690191,63069,,,,126.4304159,33.49268918
23175042,코코헤어,,F,생활서비스,F01,이/미용/건강,F01A01,여성미용실,S96112,두발미용업,50,제주특별자치도,50130,서귀포시,5013058000,서홍동,5013010600,서홍동,5.01E+18,1,대지,350,3,제주특별자치도 서귀포시 서홍동 350-3,5.01E+11,제주특별자치도 서귀포시 홍중로,51,,5.01E+24,해모루빌,제주특별자치도 서귀포시 홍중로 51,697851,63584,,,,126.5569235,33.25724299
24797881,김수연스킨케어,노형점,F,생활서비스,F01,이/미용/건강,F01A03,비만/피부관리,,,50,제주특별자치도,50110,제주시,5011066000,노형동,5011012200,노형동,5.01E+18,1,대지,2576,6,제주특별자치도 제주시 노형동 2576-6,5.01E+11,제주특별자치도 제주시 달마루길,20,1,5.01E+24,혜연빌딩,제주특별자치도 제주시 달마루길 20-1,690841,63100,,5,,126.473999,33.48999701
28495397,제주동야루별장,,O,숙박,O03,캠프/별장/펜션,O03A01,캠프/별장/펜션,I55119,기타 관광숙박시설 운영업,50,제주특별자치도,50110,제주시,5011025900,조천읍,5011025926,조천읍,5.01E+18,1,대지,1079,15,제주특별자치도 제주시 조천읍 대흘리 1079-15,5.01E+11,제주특별자치도 제주시 조천읍 대흘9길,34,,5.01E+24,,제주특별자치도 제주시 조천읍 대흘9길 34,695962,63343,,,,126.6698858,33.49570775
,,,,,,,,,,,,,,,,,,,,,,,,,,,,,,,,,,,,,,
,,,,,,,,,,,,,,,,,,,,,,,,,,,,,,,,,,,,,,
,,,,,,,,,,,,,,,,,,,,,,,,,,,,,,,,,,,,,,
,,,,,,,,,,,,,,,,,,,,,,,,,,,,,,,,,,,,,,
,,,,,,,,,,,,,,,,,,,,,,,,,,,,,,,,,,,,,,
,,,,,,,,,,,,,,,,,,,,,,,,,,,,,,,,,,,,,,
,,,,,,,,,,,,,,,,,,,,,,,,,,,,,,,,,,,,,,
,,,,,,,,,,,,,,,,,,,,,,,,,,,,,,,,,,,,,,
,,,,,,,,,,,,,,,,,,,,,,,,,,,,,,,,,,,,,,
,,,,,,,,,,,,,,,,,,,,,,,,,,,,,,,,,,,,,,
,,,,,,,,,,,,,,,,,,,,,,,,,,,,,,,,,,,,,,
,,,,,,,,,,,,,,,,,,,,,,,,,,,,,,,,,,,,,,
,,,,,,,,,,,,,,,,,,,,,,,,,,,,,,,,,,,,,,
,,,,,,,,,,,,,,,,,,,,,,,,,,,,,,,,,,,,,,
,,,,,,,,,,,,,,,,,,,,,,,,,,,,,,,,,,,,,,
,,,,,,,,,,,,,,,,,,,,,,,,,,,,,,,,,,,,,,
,,,,,,,,,,,,,,,,,,,,,,,,,,,,,,,,,,,,,,
,,,,,,,,,,,,,,,,,,,,,,,,,,,,,,,,,,,,,,
,,,,,,,,,,,,,,,,,,,,,,,,,,,,,,,,,,,,,,
,,,,,,,,,,,,,,,,,,,,,,,,,,,,,,,,,,,,,,
,,,,,,,,,,,,,,,,,,,,,,,,,,,,,,,,,,,,,,
,,,,,,,,,,,,,,,,,,,,,,,,,,,,,,,,,,,,,,
,,,,,,,,,,,,,,,,,,,,,,,,,,,,,,,,,,,,,,
,,,,,,,,,,,,,,,,,,,,,,,,,,,,,,,,,,,,,,
,,,,,,,,,,,,,,,,,,,,,,,,,,,,,,,,,,,,,,
,,,,,,,,,,,,,,,,,,,,,,,,,,,,,,,,,,,,,,
,,,,,,,,,,,,,,,,,,,,,,,,,,,,,,,,,,,,,,
,,,,,,,,,,,,,,,,,,,,,,,,,,,,,,,,,,,,,,
,,,,,,,,,,,,,,,,,,,,,,,,,,,,,,,,,,,,,,
,,,,,,,,,,,,,,,,,,,,,,,,,,,,,,,,,,,,,,
,,,,,,,,,,,,,,,,,,,,,,,,,,,,,,,,,,,,,,
,,,,,,,,,,,,,,,,,,,,,,,,,,,,,,,,,,,,,,
,,,,,,,,,,,,,,,,,,,,,,,,,,,,,,,,,,,,,,
,,,,,,,,,,,,,,,,,,,,,,,,,,,,,,,,,,,,,,
,,,,,,,,,,,,,,,,,,,,,,,,,,,,,,,,,,,,,,
,,,,,,,,,,,,,,,,,,,,,,,,,,,,,,,,,,,,,,
,,,,,,,,,,,,,,,,,,,,,,,,,,,,,,,,,,,,,,
,,,,,,,,,,,,,,,,,,,,,,,,,,,,,,,,,,,,,,
,,,,,,,,,,,,,,,,,,,,,,,,,,,,,,,,,,,,,,
,,,,,,,,,,,,,,,,,,,,,,,,,,,,,,,,,,,,,,
,,,,,,,,,,,,,,,,,,,,,,,,,,,,,,,,,,,,,,
,,,,,,,,,,,,,,,,,,,,,,,,,,,,,,,,,,,,,,
,,,,,,,,,,,,,,,,,,,,,,,,,,,,,,,,,,,,,,
,,,,,,,,,,,,,,,,,,,,,,,,,,,,,,,,,,,,,,
,,,,,,,,,,,,,,,,,,,,,,,,,,,,,,,,,,,,,,
,,,,,,,,,,,,,,,,,,,,,,,,,,,,,,,,,,,,,,
,,,,,,,,,,,,,,,,,,,,,,,,,,,,,,,,,,,,,,
,,,,,,,,,,,,,,,,,,,,,,,,,,,,,,,,,,,,,,
,,,,,,,,,,,,,,,,,,,,,,,,,,,,,,,,,,,,,,
,,,,,,,,,,,,,,,,,,,,,,,,,,,,,,,,,,,,,,
,,,,,,,,,,,,,,,,,,,,,,,,,,,,,,,,,,,,,,
,,,,,,,,,,,,,,,,,,,,,,,,,,,,,,,,,,,,,,
,,,,,,,,,,,,,,,,,,,,,,,,,,,,,,,,,,,,,,
,,,,,,,,,,,,,,,,,,,,,,,,,,,,,,,,,,,,,,
,,,,,,,,,,,,,,,,,,,,,,,,,,,,,,,,,,,,,,
,,,,,,,,,,,,,,,,,,,,,,,,,,,,,,,,,,,,,,
,,,,,,,,,,,,,,,,,,,,,,,,,,,,,,,,,,,,,,
,,,,,,,,,,,,,,,,,,,,,,,,,,,,,,,,,,,,,,
,,,,,,,,,,,,,,,,,,,,,,,,,,,,,,,,,,,,,,
,,,,,,,,,,,,,,,,,,,,,,,,,,,,,,,,,,,,,,
,,,,,,,,,,,,,,,,,,,,,,,,,,,,,,,,,,,,,,
,,,,,,,,,,,,,,,,,,,,,,,,,,,,,,,,,,,,,,
,,,,,,,,,,,,,,,,,,,,,,,,,,,,,,,,,,,,,,
,,,,,,,,,,,,,,,,,,,,,,,,,,,,,,,,,,,,,,
,,,,,,,,,,,,,,,,,,,,,,,,,,,,,,,,,,,,,,
,,,,,,,,,,,,,,,,,,,,,,,,,,,,,,,,,,,,,,
,,,,,,,,,,,,,,,,,,,,,,,,,,,,,,,,,,,,,,
,,,,,,,,,,,,,,,,,,,,,,,,,,,,,,,,,,,,,,
,,,,,,,,,,,,,,,,,,,,,,,,,,,,,,,,,,,,,,
,,,,,,,,,,,,,,,,,,,,,,,,,,,,,,,,,,,,,,
,,,,,,,,,,,,,,,,,,,,,,,,,,,,,,,,,,,,,,
,,,,,,,,,,,,,,,,,,,,,,,,,,,,,,,,,,,,,,
,,,,,,,,,,,,,,,,,,,,,,,,,,,,,,,,,,,,,,
,,,,,,,,,,,,,,,,,,,,,,,,,,,,,,,,,,,,,,
,,,,,,,,,,,,,,,,,,,,,,,,,,,,,,,,,,,,,,
,,,,,,,,,,,,,,,,,,,,,,,,,,,,,,,,,,,,,,
,,,,,,,,,,,,,,,,,,,,,,,,,,,,,,,,,,,,,,
,,,,,,,,,,,,,,,,,,,,,,,,,,,,,,,,,,,,,,
,,,,,,,,,,,,,,,,,,,,,,,,,,,,,,,,,,,,,,
,,,,,,,,,,,,,,,,,,,,,,,,,,,,,,,,,,,,,,
,,,,,,,,,,,,,,,,,,,,,,,,,,,,,,,,,,,,,,
,,,,,,,,,,,,,,,,,,,,,,,,,,,,,,,,,,,,,,
,,,,,,,,,,,,,,,,,,,,,,,,,,,,,,,,,,,,,,
,,,,,,,,,,,,,,,,,,,,,,,,,,,,,,,,,,,,,,
,,,,,,,,,,,,,,,,,,,,,,,,,,,,,,,,,,,,,,
,,,,,,,,,,,,,,,,,,,,,,,,,,,,,,,,,,,,,,
,,,,,,,,,,,,,,,,,,,,,,,,,,,,,,,,,,,,,,
,,,,,,,,,,,,,,,,,,,,,,,,,,,,,,,,,,,,,,
,,,,,,,,,,,,,,,,,,,,,,,,,,,,,,,,,,,,,,
,,,,,,,,,,,,,,,,,,,,,,,,,,,,,,,,,,,,,,
,,,,,,,,,,,,,,,,,,,,,,,,,,,,,,,,,,,,,,
,,,,,,,,,,,,,,,,,,,,,,,,,,,,,,,,,,,,,,
,,,,,,,,,,,,,,,,,,,,,,,,,,,,,,,,,,,,,,
,,,,,,,,,,,,,,,,,,,,,,,,,,,,,,,,,,,,,,
,,,,,,,,,,,,,,,,,,,,,,,,,,,,,,,,,,,,,,
,,,,,,,,,,,,,,,,,,,,,,,,,,,,,,,,,,,,,,
,,,,,,,,,,,,,,,,,,,,,,,,,,,,,,,,,,,,,,
,,,,,,,,,,,,,,,,,,,,,,,,,,,,,,,,,,,,,,
,,,,,,,,,,,,,,,,,,,,,,,,,,,,,,,,,,,,,,
,,,,,,,,,,,,,,,,,,,,,,,,,,,,,,,,,,,,,,
,,,,,,,,,,,,,,,,,,,,,,,,,,,,,,,,,,,,,,
,,,,,,,,,,,,,,,,,,,,,,,,,,,,,,,,,,,,,,
,,,,,,,,,,,,,,,,,,,,,,,,,,,,,,,,,,,,,,
,,,,,,,,,,,,,,,,,,,,,,,,,,,,,,,,,,,,,,
,,,,,,,,,,,,,,,,,,,,,,,,,,,,,,,,,,,,,,
,,,,,,,,,,,,,,,,,,,,,,,,,,,,,,,,,,,,,,
,,,,,,,,,,,,,,,,,,,,,,,,,,,,,,,,,,,,,,
,,,,,,,,,,,,,,,,,,,,,,,,,,,,,,,,,,,,,,
,,,,,,,,,,,,,,,,,,,,,,,,,,,,,,,,,,,,,,
,,,,,,,,,,,,,,,,,,,,,,,,,,,,,,,,,,,,,,
,,,,,,,,,,,,,,,,,,,,,,,,,,,,,,,,,,,,,,
,,,,,,,,,,,,,,,,,,,,,,,,,,,,,,,,,,,,,,
,,,,,,,,,,,,,,,,,,,,,,,,,,,,,,,,,,,,,,
,,,,,,,,,,,,,,,,,,,,,,,,,,,,,,,,,,,,,,
,,,,,,,,,,,,,,,,,,,,,,,,,,,,,,,,,,,,,,
,,,,,,,,,,,,,,,,,,,,,,,,,,,,,,,,,,,,,,
,,,,,,,,,,,,,,,,,,,,,,,,,,,,,,,,,,,,,,
,,,,,,,,,,,,,,,,,,,,,,,,,,,,,,,,,,,,,,
,,,,,,,,,,,,,,,,,,,,,,,,,,,,,,,,,,,,,,
,,,,,,,,,,,,,,,,,,,,,,,,,,,,,,,,,,,,,,
,,,,,,,,,,,,,,,,,,,,,,,,,,,,,,,,,,,,,,
,,,,,,,,,,,,,,,,,,,,,,,,,,,,,,,,,,,,,,
,,,,,,,,,,,,,,,,,,,,,,,,,,,,,,,,,,,,,,
,,,,,,,,,,,,,,,,,,,,,,,,,,,,,,,,,,,,,,
,,,,,,,,,,,,,,,,,,,,,,,,,,,,,,,,,,,,,,
,,,,,,,,,,,,,,,,,,,,,,,,,,,,,,,,,,,,,,
,,,,,,,,,,,,,,,,,,,,,,,,,,,,,,,,,,,,,,
,,,,,,,,,,,,,,,,,,,,,,,,,,,,,,,,,,,,,,
,,,,,,,,,,,,,,,,,,,,,,,,,,,,,,,,,,,,,,
,,,,,,,,,,,,,,,,,,,,,,,,,,,,,,,,,,,,,,
,,,,,,,,,,,,,,,,,,,,,,,,,,,,,,,,,,,,,,
,,,,,,,,,,,,,,,,,,,,,,,,,,,,,,,,,,,,,,
,,,,,,,,,,,,,,,,,,,,,,,,,,,,,,,,,,,,,,
,,,,,,,,,,,,,,,,,,,,,,,,,,,,,,,,,,,,,,
,,,,,,,,,,,,,,,,,,,,,,,,,,,,,,,,,,,,,,
,,,,,,,,,,,,,,,,,,,,,,,,,,,,,,,,,,,,,,
,,,,,,,,,,,,,,,,,,,,,,,,,,,,,,,,,,,,,,
,,,,,,,,,,,,,,,,,,,,,,,,,,,,,,,,,,,,,,
,,,,,,,,,,,,,,,,,,,,,,,,,,,,,,,,,,,,,,
,,,,,,,,,,,,,,,,,,,,,,,,,,,,,,,,,,,,,,
,,,,,,,,,,,,,,,,,,,,,,,,,,,,,,,,,,,,,,
,,,,,,,,,,,,,,,,,,,,,,,,,,,,,,,,,,,,,,
,,,,,,,,,,,,,,,,,,,,,,,,,,,,,,,,,,,,,,
,,,,,,,,,,,,,,,,,,,,,,,,,,,,,,,,,,,,,,
,,,,,,,,,,,,,,,,,,,,,,,,,,,,,,,,,,,,,,
,,,,,,,,,,,,,,,,,,,,,,,,,,,,,,,,,,,,,,
,,,,,,,,,,,,,,,,,,,,,,,,,,,,,,,,,,,,,,
,,,,,,,,,,,,,,,,,,,,,,,,,,,,,,,,,,,,,,
,,,,,,,,,,,,,,,,,,,,,,,,,,,,,,,,,,,,,,
,,,,,,,,,,,,,,,,,,,,,,,,,,,,,,,,,,,,,,
,,,,,,,,,,,,,,,,,,,,,,,,,,,,,,,,,,,,,,
,,,,,,,,,,,,,,,,,,,,,,,,,,,,,,,,,,,,,,
,,,,,,,,,,,,,,,,,,,,,,,,,,,,,,,,,,,,,,
,,,,,,,,,,,,,,,,,,,,,,,,,,,,,,,,,,,,,,
,,,,,,,,,,,,,,,,,,,,,,,,,,,,,,,,,,,,,,
,,,,,,,,,,,,,,,,,,,,,,,,,,,,,,,,,,,,,,
,,,,,,,,,,,,,,,,,,,,,,,,,,,,,,,,,,,,,,
,,,,,,,,,,,,,,,,,,,,,,,,,,,,,,,,,,,,,,
,,,,,,,,,,,,,,,,,,,,,,,,,,,,,,,,,,,,,,
,,,,,,,,,,,,,,,,,,,,,,,,,,,,,,,,,,,,,,
,,,,,,,,,,,,,,,,,,,,,,,,,,,,,,,,,,,,,,
,,,,,,,,,,,,,,,,,,,,,,,,,,,,,,,,,,,,,,
,,,,,,,,,,,,,,,,,,,,,,,,,,,,,,,,,,,,,,
,,,,,,,,,,,,,,,,,,,,,,,,,,,,,,,,,,,,,,
,,,,,,,,,,,,,,,,,,,,,,,,,,,,,,,,,,,,,,
,,,,,,,,,,,,,,,,,,,,,,,,,,,,,,,,,,,,,,
,,,,,,,,,,,,,,,,,,,,,,,,,,,,,,,,,,,,,,
,,,,,,,,,,,,,,,,,,,,,,,,,,,,,,,,,,,,,,
,,,,,,,,,,,,,,,,,,,,,,,,,,,,,,,,,,,,,,
,,,,,,,,,,,,,,,,,,,,,,,,,,,,,,,,,,,,,,
,,,,,,,,,,,,,,,,,,,,,,,,,,,,,,,,,,,,,,
,,,,,,,,,,,,,,,,,,,,,,,,,,,,,,,,,,,,,,
,,,,,,,,,,,,,,,,,,,,,,,,,,,,,,,,,,,,,,
,,,,,,,,,,,,,,,,,,,,,,,,,,,,,,,,,,,,,,
,,,,,,,,,,,,,,,,,,,,,,,,,,,,,,,,,,,,,,
,,,,,,,,,,,,,,,,,,,,,,,,,,,,,,,,,,,,,,
,,,,,,,,,,,,,,,,,,,,,,,,,,,,,,,,,,,,,,
,,,,,,,,,,,,,,,,,,,,,,,,,,,,,,,,,,,,,,
,,,,,,,,,,,,,,,,,,,,,,,,,,,,,,,,,,,,,,
,,,,,,,,,,,,,,,,,,,,,,,,,,,,,,,,,,,,,,
,,,,,,,,,,,,,,,,,,,,,,,,,,,,,,,,,,,,,,
,,,,,,,,,,,,,,,,,,,,,,,,,,,,,,,,,,,,,,
,,,,,,,,,,,,,,,,,,,,,,,,,,,,,,,,,,,,,,
,,,,,,,,,,,,,,,,,,,,,,,,,,,,,,,,,,,,,,
,,,,,,,,,,,,,,,,,,,,,,,,,,,,,,,,,,,,,,
,,,,,,,,,,,,,,,,,,,,,,,,,,,,,,,,,,,,,,
,,,,,,,,,,,,,,,,,,,,,,,,,,,,,,,,,,,,,,
,,,,,,,,,,,,,,,,,,,,,,,,,,,,,,,,,,,,,,
,,,,,,,,,,,,,,,,,,,,,,,,,,,,,,,,,,,,,,
,,,,,,,,,,,,,,,,,,,,,,,,,,,,,,,,,,,,,,
,,,,,,,,,,,,,,,,,,,,,,,,,,,,,,,,,,,,,,
,,,,,,,,,,,,,,,,,,,,,,,,,,,,,,,,,,,,,,
,,,,,,,,,,,,,,,,,,,,,,,,,,,,,,,,,,,,,,
,,,,,,,,,,,,,,,,,,,,,,,,,,,,,,,,,,,,,,
,,,,,,,,,,,,,,,,,,,,,,,,,,,,,,,,,,,,,,
,,,,,,,,,,,,,,,,,,,,,,,,,,,,,,,,,,,,,,
,,,,,,,,,,,,,,,,,,,,,,,,,,,,,,,,,,,,,,
,,,,,,,,,,,,,,,,,,,,,,,,,,,,,,,,,,,,,,
,,,,,,,,,,,,,,,,,,,,,,,,,,,,,,,,,,,,,,
,,,,,,,,,,,,,,,,,,,,,,,,,,,,,,,,,,,,,,
,,,,,,,,,,,,,,,,,,,,,,,,,,,,,,,,,,,,,,
,,,,,,,,,,,,,,,,,,,,,,,,,,,,,,,,,,,,,,
,,,,,,,,,,,,,,,,,,,,,,,,,,,,,,,,,,,,,,
,,,,,,,,,,,,,,,,,,,,,,,,,,,,,,,,,,,,,,
,,,,,,,,,,,,,,,,,,,,,,,,,,,,,,,,,,,,,,
,,,,,,,,,,,,,,,,,,,,,,,,,,,,,,,,,,,,,,
,,,,,,,,,,,,,,,,,,,,,,,,,,,,,,,,,,,,,,
,,,,,,,,,,,,,,,,,,,,,,,,,,,,,,,,,,,,,,
,,,,,,,,,,,,,,,,,,,,,,,,,,,,,,,,,,,,,,
,,,,,,,,,,,,,,,,,,,,,,,,,,,,,,,,,,,,,,
,,,,,,,,,,,,,,,,,,,,,,,,,,,,,,,,,,,,,,
,,,,,,,,,,,,,,,,,,,,,,,,,,,,,,,,,,,,,,
,,,,,,,,,,,,,,,,,,,,,,,,,,,,,,,,,,,,,,
,,,,,,,,,,,,,,,,,,,,,,,,,,,,,,,,,,,,,,
,,,,,,,,,,,,,,,,,,,,,,,,,,,,,,,,,,,,,,
,,,,,,,,,,,,,,,,,,,,,,,,,,,,,,,,,,,,,,
,,,,,,,,,,,,,,,,,,,,,,,,,,,,,,,,,,,,,,
,,,,,,,,,,,,,,,,,,,,,,,,,,,,,,,,,,,,,,
,,,,,,,,,,,,,,,,,,,,,,,,,,,,,,,,,,,,,,
,,,,,,,,,,,,,,,,,,,,,,,,,,,,,,,,,,,,,,
,,,,,,,,,,,,,,,,,,,,,,,,,,,,,,,,,,,,,,
,,,,,,,,,,,,,,,,,,,,,,,,,,,,,,,,,,,,,,
,,,,,,,,,,,,,,,,,,,,,,,,,,,,,,,,,,,,,,
,,,,,,,,,,,,,,,,,,,,,,,,,,,,,,,,,,,,,,
,,,,,,,,,,,,,,,,,,,,,,,,,,,,,,,,,,,,,,
,,,,,,,,,,,,,,,,,,,,,,,,,,,,,,,,,,,,,,
,,,,,,,,,,,,,,,,,,,,,,,,,,,,,,,,,,,,,,
,,,,,,,,,,,,,,,,,,,,,,,,,,,,,,,,,,,,,,
,,,,,,,,,,,,,,,,,,,,,,,,,,,,,,,,,,,,,,
,,,,,,,,,,,,,,,,,,,,,,,,,,,,,,,,,,,,,,
,,,,,,,,,,,,,,,,,,,,,,,,,,,,,,,,,,,,,,
,,,,,,,,,,,,,,,,,,,,,,,,,,,,,,,,,,,,,,
,,,,,,,,,,,,,,,,,,,,,,,,,,,,,,,,,,,,,,
,,,,,,,,,,,,,,,,,,,,,,,,,,,,,,,,,,,,,,
,,,,,,,,,,,,,,,,,,,,,,,,,,,,,,,,,,,,,,
,,,,,,,,,,,,,,,,,,,,,,,,,,,,,,,,,,,,,,
,,,,,,,,,,,,,,,,,,,,,,,,,,,,,,,,,,,,,,
,,,,,,,,,,,,,,,,,,,,,,,,,,,,,,,,,,,,,,
,,,,,,,,,,,,,,,,,,,,,,,,,,,,,,,,,,,,,,
,,,,,,,,,,,,,,,,,,,,,,,,,,,,,,,,,,,,,,
,,,,,,,,,,,,,,,,,,,,,,,,,,,,,,,,,,,,,,
,,,,,,,,,,,,,,,,,,,,,,,,,,,,,,,,,,,,,,
,,,,,,,,,,,,,,,,,,,,,,,,,,,,,,,,,,,,,,
,,,,,,,,,,,,,,,,,,,,,,,,,,,,,,,,,,,,,,
,,,,,,,,,,,,,,,,,,,,,,,,,,,,,,,,,,,,,,
,,,,,,,,,,,,,,,,,,,,,,,,,,,,,,,,,,,,,,
,,,,,,,,,,,,,,,,,,,,,,,,,,,,,,,,,,,,,,
,,,,,,,,,,,,,,,,,,,,,,,,,,,,,,,,,,,,,,
,,,,,,,,,,,,,,,,,,,,,,,,,,,,,,,,,,,,,,
,,,,,,,,,,,,,,,,,,,,,,,,,,,,,,,,,,,,,,
,,,,,,,,,,,,,,,,,,,,,,,,,,,,,,,,,,,,,,
,,,,,,,,,,,,,,,,,,,,,,,,,,,,,,,,,,,,,,
,,,,,,,,,,,,,,,,,,,,,,,,,,,,,,,,,,,,,,
,,,,,,,,,,,,,,,,,,,,,,,,,,,,,,,,,,,,,,
,,,,,,,,,,,,,,,,,,,,,,,,,,,,,,,,,,,,,,
,,,,,,,,,,,,,,,,,,,,,,,,,,,,,,,,,,,,,,
,,,,,,,,,,,,,,,,,,,,,,,,,,,,,,,,,,,,,,
,,,,,,,,,,,,,,,,,,,,,,,,,,,,,,,,,,,,,,
,,,,,,,,,,,,,,,,,,,,,,,,,,,,,,,,,,,,,,
,,,,,,,,,,,,,,,,,,,,,,,,,,,,,,,,,,,,,,
,,,,,,,,,,,,,,,,,,,,,,,,,,,,,,,,,,,,,,
,,,,,,,,,,,,,,,,,,,,,,,,,,,,,,,,,,,,,,
,,,,,,,,,,,,,,,,,,,,,,,,,,,,,,,,,,,,,,
,,,,,,,,,,,,,,,,,,,,,,,,,,,,,,,,,,,,,,
,,,,,,,,,,,,,,,,,,,,,,,,,,,,,,,,,,,,,,
,,,,,,,,,,,,,,,,,,,,,,,,,,,,,,,,,,,,,,
,,,,,,,,,,,,,,,,,,,,,,,,,,,,,,,,,,,,,,
,,,,,,,,,,,,,,,,,,,,,,,,,,,,,,,,,,,,,,
,,,,,,,,,,,,,,,,,,,,,,,,,,,,,,,,,,,,,,
,,,,,,,,,,,,,,,,,,,,,,,,,,,,,,,,,,,,,,
,,,,,,,,,,,,,,,,,,,,,,,,,,,,,,,,,,,,,,
,,,,,,,,,,,,,,,,,,,,,,,,,,,,,,,,,,,,,,
,,,,,,,,,,,,,,,,,,,,,,,,,,,,,,,,,,,,,,
,,,,,,,,,,,,,,,,,,,,,,,,,,,,,,,,,,,,,,
,,,,,,,,,,,,,,,,,,,,,,,,,,,,,,,,,,,,,,
,,,,,,,,,,,,,,,,,,,,,,,,,,,,,,,,,,,,,,
,,,,,,,,,,,,,,,,,,,,,,,,,,,,,,,,,,,,,,
,,,,,,,,,,,,,,,,,,,,,,,,,,,,,,,,,,,,,,
,,,,,,,,,,,,,,,,,,,,,,,,,,,,,,,,,,,,,,
,,,,,,,,,,,,,,,,,,,,,,,,,,,,,,,,,,,,,,
,,,,,,,,,,,,,,,,,,,,,,,,,,,,,,,,,,,,,,
,,,,,,,,,,,,,,,,,,,,,,,,,,,,,,,,,,,,,,
,,,,,,,,,,,,,,,,,,,,,,,,,,,,,,,,,,,,,,
,,,,,,,,,,,,,,,,,,,,,,,,,,,,,,,,,,,,,,
,,,,,,,,,,,,,,,,,,,,,,,,,,,,,,,,,,,,,,
,,,,,,,,,,,,,,,,,,,,,,,,,,,,,,,,,,,,,,
,,,,,,,,,,,,,,,,,,,,,,,,,,,,,,,,,,,,,,
,,,,,,,,,,,,,,,,,,,,,,,,,,,,,,,,,,,,,,
,,,,,,,,,,,,,,,,,,,,,,,,,,,,,,,,,,,,,,
,,,,,,,,,,,,,,,,,,,,,,,,,,,,,,,,,,,,,,
,,,,,,,,,,,,,,,,,,,,,,,,,,,,,,,,,,,,,,
,,,,,,,,,,,,,,,,,,,,,,,,,,,,,,,,,,,,,,
,,,,,,,,,,,,,,,,,,,,,,,,,,,,,,,,,,,,,,
,,,,,,,,,,,,,,,,,,,,,,,,,,,,,,,,,,,,,,
,,,,,,,,,,,,,,,,,,,,,,,,,,,,,,,,,,,,,,
,,,,,,,,,,,,,,,,,,,,,,,,,,,,,,,,,,,,,,
,,,,,,,,,,,,,,,,,,,,,,,,,,,,,,,,,,,,,,
,,,,,,,,,,,,,,,,,,,,,,,,,,,,,,,,,,,,,,
,,,,,,,,,,,,,,,,,,,,,,,,,,,,,,,,,,,,,,
,,,,,,,,,,,,,,,,,,,,,,,,,,,,,,,,,,,,,,
,,,,,,,,,,,,,,,,,,,,,,,,,,,,,,,,,,,,,,
,,,,,,,,,,,,,,,,,,,,,,,,,,,,,,,,,,,,,,
,,,,,,,,,,,,,,,,,,,,,,,,,,,,,,,,,,,,,,
,,,,,,,,,,,,,,,,,,,,,,,,,,,,,,,,,,,,,,
,,,,,,,,,,,,,,,,,,,,,,,,,,,,,,,,,,,,,,
,,,,,,,,,,,,,,,,,,,,,,,,,,,,,,,,,,,,,,
,,,,,,,,,,,,,,,,,,,,,,,,,,,,,,,,,,,,,,
,,,,,,,,,,,,,,,,,,,,,,,,,,,,,,,,,,,,,,
,,,,,,,,,,,,,,,,,,,,,,,,,,,,,,,,,,,,,,
,,,,,,,,,,,,,,,,,,,,,,,,,,,,,,,,,,,,,,
,,,,,,,,,,,,,,,,,,,,,,,,,,,,,,,,,,,,,,
,,,,,,,,,,,,,,,,,,,,,,,,,,,,,,,,,,,,,,
,,,,,,,,,,,,,,,,,,,,,,,,,,,,,,,,,,,,,,
,,,,,,,,,,,,,,,,,,,,,,,,,,,,,,,,,,,,,,
,,,,,,,,,,,,,,,,,,,,,,,,,,,,,,,,,,,,,,
,,,,,,,,,,,,,,,,,,,,,,,,,,,,,,,,,,,,,,
,,,,,,,,,,,,,,,,,,,,,,,,,,,,,,,,,,,,,,
,,,,,,,,,,,,,,,,,,,,,,,,,,,,,,,,,,,,,,
,,,,,,,,,,,,,,,,,,,,,,,,,,,,,,,,,,,,,,
,,,,,,,,,,,,,,,,,,,,,,,,,,,,,,,,,,,,,,
,,,,,,,,,,,,,,,,,,,,,,,,,,,,,,,,,,,,,,
,,,,,,,,,,,,,,,,,,,,,,,,,,,,,,,,,,,,,,
,,,,,,,,,,,,,,,,,,,,,,,,,,,,,,,,,,,,,,
,,,,,,,,,,,,,,,,,,,,,,,,,,,,,,,,,,,,,,
,,,,,,,,,,,,,,,,,,,,,,,,,,,,,,,,,,,,,,
,,,,,,,,,,,,,,,,,,,,,,,,,,,,,,,,,,,,,,
,,,,,,,,,,,,,,,,,,,,,,,,,,,,,,,,,,,,,,
,,,,,,,,,,,,,,,,,,,,,,,,,,,,,,,,,,,,,,
,,,,,,,,,,,,,,,,,,,,,,,,,,,,,,,,,,,,,,
,,,,,,,,,,,,,,,,,,,,,,,,,,,,,,,,,,,,,,
,,,,,,,,,,,,,,,,,,,,,,,,,,,,,,,,,,,,,,
,,,,,,,,,,,,,,,,,,,,,,,,,,,,,,,,,,,,,,
,,,,,,,,,,,,,,,,,,,,,,,,,,,,,,,,,,,,,,
,,,,,,,,,,,,,,,,,,,,,,,,,,,,,,,,,,,,,,
,,,,,,,,,,,,,,,,,,,,,,,,,,,,,,,,,,,,,,
,,,,,,,,,,,,,,,,,,,,,,,,,,,,,,,,,,,,,,
,,,,,,,,,,,,,,,,,,,,,,,,,,,,,,,,,,,,,,
,,,,,,,,,,,,,,,,,,,,,,,,,,,,,,,,,,,,,,
,,,,,,,,,,,,,,,,,,,,,,,,,,,,,,,,,,,,,,
,,,,,,,,,,,,,,,,,,,,,,,,,,,,,,,,,,,,,,
,,,,,,,,,,,,,,,,,,,,,,,,,,,,,,,,,,,,,,
,,,,,,,,,,,,,,,,,,,,,,,,,,,,,,,,,,,,,,
,,,,,,,,,,,,,,,,,,,,,,,,,,,,,,,,,,,,,,
,,,,,,,,,,,,,,,,,,,,,,,,,,,,,,,,,,,,,,
,,,,,,,,,,,,,,,,,,,,,,,,,,,,,,,,,,,,,,
,,,,,,,,,,,,,,,,,,,,,,,,,,,,,,,,,,,,,,
,,,,,,,,,,,,,,,,,,,,,,,,,,,,,,,,,,,,,,
,,,,,,,,,,,,,,,,,,,,,,,,,,,,,,,,,,,,,,
,,,,,,,,,,,,,,,,,,,,,,,,,,,,,,,,,,,,,,
,,,,,,,,,,,,,,,,,,,,,,,,,,,,,,,,,,,,,,
,,,,,,,,,,,,,,,,,,,,,,,,,,,,,,,,,,,,,,
,,,,,,,,,,,,,,,,,,,,,,,,,,,,,,,,,,,,,,
,,,,,,,,,,,,,,,,,,,,,,,,,,,,,,,,,,,,,,
,,,,,,,,,,,,,,,,,,,,,,,,,,,,,,,,,,,,,,
,,,,,,,,,,,,,,,,,,,,,,,,,,,,,,,,,,,,,,
,,,,,,,,,,,,,,,,,,,,,,,,,,,,,,,,,,,,,,
,,,,,,,,,,,,,,,,,,,,,,,,,,,,,,,,,,,,,,
,,,,,,,,,,,,,,,,,,,,,,,,,,,,,,,,,,,,,,
,,,,,,,,,,,,,,,,,,,,,,,,,,,,,,,,,,,,,,
,,,,,,,,,,,,,,,,,,,,,,,,,,,,,,,,,,,,,,
,,,,,,,,,,,,,,,,,,,,,,,,,,,,,,,,,,,,,,
,,,,,,,,,,,,,,,,,,,,,,,,,,,,,,,,,,,,,,
,,,,,,,,,,,,,,,,,,,,,,,,,,,,,,,,,,,,,,
,,,,,,,,,,,,,,,,,,,,,,,,,,,,,,,,,,,,,,
,,,,,,,,,,,,,,,,,,,,,,,,,,,,,,,,,,,,,,
,,,,,,,,,,,,,,,,,,,,,,,,,,,,,,,,,,,,,,
,,,,,,,,,,,,,,,,,,,,,,,,,,,,,,,,,,,,,,
,,,,,,,,,,,,,,,,,,,,,,,,,,,,,,,,,,,,,,
,,,,,,,,,,,,,,,,,,,,,,,,,,,,,,,,,,,,,,
,,,,,,,,,,,,,,,,,,,,,,,,,,,,,,,,,,,,,,
,,,,,,,,,,,,,,,,,,,,,,,,,,,,,,,,,,,,,,
,,,,,,,,,,,,,,,,,,,,,,,,,,,,,,,,,,,,,,
,,,,,,,,,,,,,,,,,,,,,,,,,,,,,,,,,,,,,,
,,,,,,,,,,,,,,,,,,,,,,,,,,,,,,,,,,,,,,
,,,,,,,,,,,,,,,,,,,,,,,,,,,,,,,,,,,,,,
,,,,,,,,,,,,,,,,,,,,,,,,,,,,,,,,,,,,,,
,,,,,,,,,,,,,,,,,,,,,,,,,,,,,,,,,,,,,,
,,,,,,,,,,,,,,,,,,,,,,,,,,,,,,,,,,,,,,
,,,,,,,,,,,,,,,,,,,,,,,,,,,,,,,,,,,,,,
,,,,,,,,,,,,,,,,,,,,,,,,,,,,,,,,,,,,,,
,,,,,,,,,,,,,,,,,,,,,,,,,,,,,,,,,,,,,,
,,,,,,,,,,,,,,,,,,,,,,,,,,,,,,,,,,,,,,
,,,,,,,,,,,,,,,,,,,,,,,,,,,,,,,,,,,,,,
,,,,,,,,,,,,,,,,,,,,,,,,,,,,,,,,,,,,,,
,,,,,,,,,,,,,,,,,,,,,,,,,,,,,,,,,,,,,,
,,,,,,,,,,,,,,,,,,,,,,,,,,,,,,,,,,,,,,
,,,,,,,,,,,,,,,,,,,,,,,,,,,,,,,,,,,,,,
,,,,,,,,,,,,,,,,,,,,,,,,,,,,,,,,,,,,,,
,,,,,,,,,,,,,,,,,,,,,,,,,,,,,,,,,,,,,,
,,,,,,,,,,,,,,,,,,,,,,,,,,,,,,,,,,,,,,
,,,,,,,,,,,,,,,,,,,,,,,,,,,,,,,,,,,,,,
,,,,,,,,,,,,,,,,,,,,,,,,,,,,,,,,,,,,,,
,,,,,,,,,,,,,,,,,,,,,,,,,,,,,,,,,,,,,,
,,,,,,,,,,,,,,,,,,,,,,,,,,,,,,,,,,,,,,
,,,,,,,,,,,,,,,,,,,,,,,,,,,,,,,,,,,,,,
,,,,,,,,,,,,,,,,,,,,,,,,,,,,,,,,,,,,,,
,,,,,,,,,,,,,,,,,,,,,,,,,,,,,,,,,,,,,,
,,,,,,,,,,,,,,,,,,,,,,,,,,,,,,,,,,,,,,
,,,,,,,,,,,,,,,,,,,,,,,,,,,,,,,,,,,,,,
,,,,,,,,,,,,,,,,,,,,,,,,,,,,,,,,,,,,,,
,,,,,,,,,,,,,,,,,,,,,,,,,,,,,,,,,,,,,,
,,,,,,,,,,,,,,,,,,,,,,,,,,,,,,,,,,,,,,
,,,,,,,,,,,,,,,,,,,,,,,,,,,,,,,,,,,,,,
,,,,,,,,,,,,,,,,,,,,,,,,,,,,,,,,,,,,,,
,,,,,,,,,,,,,,,,,,,,,,,,,,,,,,,,,,,,,,
,,,,,,,,,,,,,,,,,,,,,,,,,,,,,,,,,,,,,,
,,,,,,,,,,,,,,,,,,,,,,,,,,,,,,,,,,,,,,
,,,,,,,,,,,,,,,,,,,,,,,,,,,,,,,,,,,,,,
,,,,,,,,,,,,,,,,,,,,,,,,,,,,,,,,,,,,,,
,,,,,,,,,,,,,,,,,,,,,,,,,,,,,,,,,,,,,,
,,,,,,,,,,,,,,,,,,,,,,,,,,,,,,,,,,,,,,
,,,,,,,,,,,,,,,,,,,,,,,,,,,,,,,,,,,,,,
,,,,,,,,,,,,,,,,,,,,,,,,,,,,,,,,,,,,,,
,,,,,,,,,,,,,,,,,,,,,,,,,,,,,,,,,,,,,,
,,,,,,,,,,,,,,,,,,,,,,,,,,,,,,,,,,,,,,
,,,,,,,,,,,,,,,,,,,,,,,,,,,,,,,,,,,,,,
,,,,,,,,,,,,,,,,,,,,,,,,,,,,,,,,,,,,,,
,,,,,,,,,,,,,,,,,,,,,,,,,,,,,,,,,,,,,,
,,,,,,,,,,,,,,,,,,,,,,,,,,,,,,,,,,,,,,
,,,,,,,,,,,,,,,,,,,,,,,,,,,,,,,,,,,,,,
,,,,,,,,,,,,,,,,,,,,,,,,,,,,,,,,,,,,,,
,,,,,,,,,,,,,,,,,,,,,,,,,,,,,,,,,,,,,,
,,,,,,,,,,,,,,,,,,,,,,,,,,,,,,,,,,,,,,
,,,,,,,,,,,,,,,,,,,,,,,,,,,,,,,,,,,,,,
,,,,,,,,,,,,,,,,,,,,,,,,,,,,,,,,,,,,,,
,,,,,,,,,,,,,,,,,,,,,,,,,,,,,,,,,,,,,,
,,,,,,,,,,,,,,,,,,,,,,,,,,,,,,,,,,,,,,
,,,,,,,,,,,,,,,,,,,,,,,,,,,,,,,,,,,,,,
,,,,,,,,,,,,,,,,,,,,,,,,,,,,,,,,,,,,,,
,,,,,,,,,,,,,,,,,,,,,,,,,,,,,,,,,,,,,,
,,,,,,,,,,,,,,,,,,,,,,,,,,,,,,,,,,,,,,
,,,,,,,,,,,,,,,,,,,,,,,,,,,,,,,,,,,,,,
,,,,,,,,,,,,,,,,,,,,,,,,,,,,,,,,,,,,,,
,,,,,,,,,,,,,,,,,,,,,,,,,,,,,,,,,,,,,,
,,,,,,,,,,,,,,,,,,,,,,,,,,,,,,,,,,,,,,
,,,,,,,,,,,,,,,,,,,,,,,,,,,,,,,,,,,,,,
,,,,,,,,,,,,,,,,,,,,,,,,,,,,,,,,,,,,,,
,,,,,,,,,,,,,,,,,,,,,,,,,,,,,,,,,,,,,,
,,,,,,,,,,,,,,,,,,,,,,,,,,,,,,,,,,,,,,
,,,,,,,,,,,,,,,,,,,,,,,,,,,,,,,,,,,,,,
,,,,,,,,,,,,,,,,,,,,,,,,,,,,,,,,,,,,,,
,,,,,,,,,,,,,,,,,,,,,,,,,,,,,,,,,,,,,,
,,,,,,,,,,,,,,,,,,,,,,,,,,,,,,,,,,,,,,
,,,,,,,,,,,,,,,,,,,,,,,,,,,,,,,,,,,,,,
,,,,,,,,,,,,,,,,,,,,,,,,,,,,,,,,,,,,,,
,,,,,,,,,,,,,,,,,,,,,,,,,,,,,,,,,,,,,,
,,,,,,,,,,,,,,,,,,,,,,,,,,,,,,,,,,,,,,
,,,,,,,,,,,,,,,,,,,,,,,,,,,,,,,,,,,,,,
,,,,,,,,,,,,,,,,,,,,,,,,,,,,,,,,,,,,,,
,,,,,,,,,,,,,,,,,,,,,,,,,,,,,,,,,,,,,,
,,,,,,,,,,,,,,,,,,,,,,,,,,,,,,,,,,,,,,
,,,,,,,,,,,,,,,,,,,,,,,,,,,,,,,,,,,,,,
,,,,,,,,,,,,,,,,,,,,,,,,,,,,,,,,,,,,,,
,,,,,,,,,,,,,,,,,,,,,,,,,,,,,,,,,,,,,,
